res_id,store_name,category,address,tel,business_hours,res_cnt,Lat,Lon
653467130,하이디라오 홍대점,중식당,서울 마포구 양화로 176 동교동 와이즈파크 5층,0507-1381-7668,매일:10:00 - 21:50,0,37.557251,126.9249991
1810003724,곱창파는고깃집,한식,서울 마포구 마포대로 173-14 마포센텀슬로우스퀘어 401호,0507-1384-9245,금:15:00 - 22:00 21:00 라스트오더/토:15:00 - 22:00 21:00 라스트오더/일:15:00 - 22:00 21:00 라스트오더/월:정기휴무 (매주 월요일)/화:15:00 - 22:00 21:00 라스트오더/수:15:00 - 22:00 21:00 라스트오더/목:15:00 - 22:00 21:00 라스트오더,0,37.5510075,126.9536224
1836194923,백스트리트피자,피자,서울 종로구 수표로26길 16-2 B1 백스트리트 피자,0507-1301-5964,금:12:00 - 23:00 22:00 라스트오더/토:11:00 - 23:00 22:00 라스트오더/일:11:00 - 23:00 22:00 라스트오더/월:12:00 - 23:00 22:00 라스트오더/화:12:00 - 23:00 22:00 라스트오더/수:12:00 - 23:00 22:00 라스트오더/목:12:00 - 23:00 22:00 라스트오더,0,37.5720853,126.9898972
1201521512,빠레뜨한남 석촌호수점,양식,서울 송파구 오금로16길 10 1층 빠레뜨한남,02-6407-3417,금:11:30 - 20:30 16:00 - 17:00 브레이크타임 20:00 라스트오더/토:11:30 - 21:00 16:00 - 17:00 브레이크타임 20:30 라스트오더/일:11:30 - 21:00 16:00 - 17:00 브레이크타임 20:30 라스트오더/월:정기휴무 (매주 월요일)/화:11:30 - 20:30 16:00 - 17:00 브레이크타임 20:00 라스트오더/수:11:30 - 20:30 16:00 - 17:00 브레이크타임 20:00 라스트오더/목:11:30 - 20:30 16:00 - 17:00 브레이크타임 20:00 라스트오더,0,37.5108123,127.1087519
1264024780,몽밀,일식당,서울 영등포구 도림로125길 34 1층 몽밀,0507-1452-5563,금:11:30 - 21:00 15:30 - 17:00 브레이크타임 20:00 라스트오더/토:11:30 - 21:00 15:30 - 17:00 브레이크타임 20:00 라스트오더/일:11:30 - 17:00 16:00 라스트오더/월:정기휴무 (매주 월요일)/화:11:30 - 21:00 15:30 - 17:00 브레이크타임 20:00 라스트오더/수:11:30 - 21:00 15:30 - 17:00 브레이크타임 20:00 라스트오더/목:11:30 - 21:00 15:30 - 17:00 브레이크타임 20:00 라스트오더,0,37.5132612,126.893094
17374322,종남산장,한식,전북 완주군 소양면 송광수만로 429,063-243-8144,,0,35.8997007,127.2400298
1269901099,낙원테산도 용산아이파크몰점,일식당,서울 용산구 한강대로23길 55 6층,02-2012-0615,매일:11:00 - 22:00 21:00 라스트오더,0,37.5297718,126.9647415
38314432,하이디라오 서초지점,중식당,서울 서초구 서초대로77길 54 서초 W-TOWER,0507-1350-8260,매일:10:00 - 23:00,0,37.5025793,127.0248509
1228609331,나오리쇼쿠,한식,부산 금정구 금강로 271-14,0507-1311-4128,금:11:00 - 20:50 15:00 - 16:30 브레이크타임 20:20 라스트오더/토:11:00 - 20:50 15:00 - 16:30 브레이크타임 20:20 라스트오더/일:11:00 - 20:50 15:00 - 16:30 브레이크타임 20:20 라스트오더/월:11:00 - 20:50 15:00 - 16:30 브레이크타임 20:20 라스트오더/화:11:00 - 20:50 15:00 - 16:30 브레이크타임 20:20 라스트오더/수:11:00 - 20:50 15:00 - 16:30 브레이크타임 20:20 라스트오더/목:11:00 - 20:50 15:00 - 16:30 브레이크타임 20:20 라스트오더,0,35.2326708,129.0850846
1091986625,no smoke without fire,"카페,디저트",경기 수원시 팔달구 매산로 139-5,0507-1310-5547,금:12:00 - 20:30 20:00 라스트오더/토:11:00 - 20:30 20:00 라스트오더/일:11:00 - 20:30 20:00 라스트오더/월:12:00 - 20:30 20:00 라스트오더/화:12:00 - 20:30 20:00 라스트오더/수:12:00 - 20:30 20:00 라스트오더/목:12:00 - 20:30 20:00 라스트오더,0,37.2727473,127.0156995
1047221979,모노샌드,샌드위치,경기 오산시 밀머리로 8 1층 모노샌드,0507-1479-5596,금:10:00 - 20:00/토:10:00 - 20:00/일:정기휴무 (매주 일요일)/월:10:00 - 20:00/화:10:00 - 20:00/수:10:00 - 20:00/목:10:00 - 20:00,0,37.141156,127.0737816
1657013087,라뜰리에 꼼때,프랑스음식,서울 종로구 성균관로17길 53,0507-1445-0147,금:12:00 - 22:00 16:00 - 17:00 브레이크타임/토:12:00 - 22:00 16:00 - 17:00 브레이크타임/일:12:00 - 22:00 16:00 - 17:00 브레이크타임/월:12:00 - 22:00 16:00 - 17:00 브레이크타임/화:12:00 - 22:00 16:00 - 17:00 브레이크타임/수:12:00 - 22:00 16:00 - 17:00 브레이크타임/목:12:00 - 22:00 16:00 - 17:00 브레이크타임,0,37.5914008,126.9972772
1948758077,커리드,카레,경기 수원시 팔달구 화서문로32번길 28 1층 커리드,070-7803-2020,금:11:30 - 20:30 15:00 - 17:00 브레이크타임 20:00 라스트오더/토:11:30 - 20:30 15:00 - 17:00 브레이크타임 20:00 라스트오더/일:11:30 - 20:30 15:00 - 17:00 브레이크타임 20:00 라스트오더/월:11:30 - 20:30 15:00 - 17:00 브레이크타임 20:00 라스트오더/화:11:30 - 20:30 15:00 - 17:00 브레이크타임 20:00 라스트오더/수:정기휴무 (매주 수요일)/목:11:30 - 20:30 15:00 - 17:00 브레이크타임 20:00 라스트오더,0,37.2839345,127.0122586
1407603343,DONO,피자,서울 용산구 이태원로54길 63,0507-1443-0502,"금:12:00 - 22:00 15:00 - 17:00 브레이크타임 14:00, 21:00 라스트오더/토:12:00 - 22:00 15:00 - 16:00 브레이크타임 14:00, 21:00 라스트오더/일:12:00 - 22:00 15:00 - 16:00 브레이크타임 14:00, 21:00 라스트오더/월:12:00 - 22:00 15:00 - 17:00 브레이크타임 14:00, 21:00 라스트오더/화:정기휴무 (매주 화요일)/수:12:00 - 22:00 15:00 - 17:00 브레이크타임 14:00, 21:00 라스트오더/목:12:00 - 22:00 15:00 - 17:00 브레이크타임 14:00, 21:00 라스트오더",0,37.5357199,127.0012487
1273177276,메리그린,"카페,디저트",서울 종로구 대학로11길 49 2층,010-7361-1150,금:12:00 - 21:00/토:12:00 - 21:00/일:12:00 - 21:00/월:12:00 - 21:00/화:정기휴무 (매주 화요일)/수:12:00 - 21:00/목:12:00 - 21:00,0,37.5826117,126.9991046
1784206724,후라토식당 용산점,일식당,서울 용산구 한강대로30길 25 아스테리움 용산 지하1층 B102호,0507-1393-2052,금:11:30 - 22:00 15:00 - 17:00 브레이크타임 21:00 라스트오더/토:11:30 - 22:00 15:00 - 17:00 브레이크타임 21:00 라스트오더/일:11:30 - 22:00 15:00 - 17:00 브레이크타임 21:00 라스트오더/월:11:30 - 22:00 15:00 - 17:00 브레이크타임 21:00 라스트오더/화:11:30 - 22:00 15:00 - 17:00 브레이크타임 21:00 라스트오더/수:11:30 - 22:00 15:00 - 17:00 브레이크타임 21:00 라스트오더/목:11:30 - 22:00 15:00 - 17:00 브레이크타임 21:00 라스트오더,0,37.5275037,126.968528
589999740,딩가케이크,케이크전문,서울 마포구 동교로29길 68,,매일:11:30 - 22:00,0,37.5634111,126.9220609
880703747,호시라멘,일본식라면,서울 서초구 방배천로2안길 39 1층,0507-1400-2042,금:11:30 - 21:00 15:00 - 17:00 브레이크타임 20:30 라스트오더/토:12:00 - 21:00 15:00 - 17:00 브레이크타임 20:30 라스트오더/일:12:00 - 21:00 15:00 - 17:00 브레이크타임 20:30 라스트오더/월:정기휴무 (매주 월요일)/화:11:30 - 21:00 15:00 - 17:00 브레이크타임 20:30 라스트오더/수:11:30 - 21:00 15:00 - 17:00 브레이크타임 20:30 라스트오더/목:11:30 - 21:00 15:00 - 17:00 브레이크타임 20:30 라스트오더,0,37.4787948,126.9838357
1792834883,스폰티니 강남점,피자,서울 강남구 강남대로 442 1층,0507-1327-8072,매일:11:00 - 22:00 21:00 라스트오더,0,37.5020662,127.0260775
1828402698,교토가츠규 롯데월드어드벤처점,일식당,서울 송파구 올림픽로 240 지하 1층 푸드에비뉴,02-2143-1106,매일:11:00 - 21:00 20:00 라스트오더,0,37.5110794,127.0981638
1206369946,연남취향,양식,서울 마포구 연희로1길 36,0507-1330-9244,금:12:30 - 21:00/토:12:30 - 21:00/일:12:30 - 21:00/월:12:30 - 21:00/화:12:30 - 21:00/수:12:30 - 21:00/목:12:30 - 21:00,0,37.5604639,126.9257353
1305337580,발리문,아시아음식,서울 마포구 동교로 248-1 2층,0507-1347-8328,금:12:00 - 21:00 15:00 - 17:00 브레이크타임 20:00 라스트오더/토:12:00 - 21:00 15:00 - 17:00 브레이크타임 20:00 라스트오더/일:12:00 - 21:00 15:00 - 17:00 브레이크타임 20:00 라스트오더/월:12:00 - 21:00 15:00 - 17:00 브레이크타임 20:00 라스트오더/화:12:00 - 21:00 15:00 - 17:00 브레이크타임 20:00 라스트오더/수:12:00 - 21:00 15:00 - 17:00 브레이크타임 20:00 라스트오더/목:12:00 - 21:00 15:00 - 17:00 브레이크타임 20:00 라스트오더,0,37.5620297,126.9245311
1843239084,리얼파스타 망원점,"스파게티,파스타전문",서울 마포구 동교로9길 28 1층,0507-1420-5010,매일:11:00 - 21:00 20:20 라스트오더,0,37.5551375,126.9101488
13184523,한스K55흑돼지참나무장작구이,"찌개,전골",제주 제주시 도공로 14-8,064-713-8960,매일:10:00 - 22:00,0,33.5050766,126.4642526
1885677214,단골손님 홍대직영점,요리주점,서울 마포구 와우산로17길 6,010-3074-7733,목:17:00 - 새벽 06:00/금:17:00 - 새벽 06:00/토:17:00 - 새벽 06:00/일:17:00 - 새벽 06:00/월:17:00 - 새벽 06:00/화:17:00 - 새벽 06:00/수:17:00 - 새벽 06:00,0,37.550264,126.9226733
37101327,두베카페,"카페,디저트",전북 완주군 소양면 송광수만로 472-23,0507-1438-5222,금:10:00 - 18:00 17:30 라스트오더/토:10:00 - 18:30 18:00 라스트오더/일:10:00 - 18:30 18:00 라스트오더/월:10:00 - 18:00 17:30 라스트오더/화:10:00 - 18:00 17:30 라스트오더/수:10:00 - 18:00 17:30 라스트오더/목:10:00 - 18:00 17:30 라스트오더,0,35.9036775,127.243096
1064804903,오늘그대와,"스파게티,파스타전문",서울 마포구 동교로 262-13,0507-1370-1367,매일:11:00 - 22:00,0,37.5626699,126.925796
1238763388,남미플랜트랩,퓨전음식,서울 서초구 방배천로4안길 55 2층,02-522-1276,금:12:00 - 21:00 16:00 - 17:30 브레이크타임 20:00 라스트오더/토:12:00 - 21:00 20:00 라스트오더/일:12:00 - 21:00 20:00 라스트오더/월:12:00 - 21:00 16:00 - 17:30 브레이크타임 20:00 라스트오더/화:12:00 - 21:00 16:00 - 17:30 브레이크타임 20:00 라스트오더/수:12:00 - 21:00 16:00 - 17:30 브레이크타임 20:00 라스트오더/목:12:00 - 21:00 16:00 - 17:30 브레이크타임 20:00 라스트오더,0,37.4806186,126.9832433
38782401,감성타코 홍대점,"멕시코,남미음식",서울 마포구 와우산로21길 20-11 2층,02-337-8883,금:11:30 - 22:00 16:00 - 17:00 브레이크타임 21:00 라스트오더/토:12:00 - 22:00 21:00 라스트오더/일:12:00 - 22:00 21:00 라스트오더/월:11:30 - 22:00 16:00 - 17:00 브레이크타임 21:00 라스트오더/화:11:30 - 22:00 16:00 - 17:00 브레이크타임 21:00 라스트오더/수:11:30 - 22:00 16:00 - 17:00 브레이크타임 21:00 라스트오더/목:11:30 - 22:00 16:00 - 17:00 브레이크타임 21:00 라스트오더,0,37.5528043,126.9226911
1084867898,온센 성수점,일식당,서울 성동구 왕십리로14길 12-1,02-467-1397,"매일:11:30 - 21:00 15:30 - 17:00 브레이크타임 15:00, 20:30 라스트오더",0,37.5490083,127.0451313
1022973489,카페 노티드 피치스,카페,서울 성동구 연무장3길 9,0507-1405-9377,금:11:00 - 21:00/토:11:00 - 21:00/일:11:00 - 21:00/월:11:00 - 21:00/화:11:00 - 21:00/수:11:00 - 21:00/목:11:00 - 21:00,0,37.5446694,127.051352
1612138237,봄띠,"스파게티,파스타전문",서울 마포구 동교로38길 30 3층,0507-1328-3827,금:12:00 - 21:00/토:12:00 - 21:00/일:12:00 - 21:00/월:정기휴무 (매주 월요일)/화:12:00 - 21:00/수:12:00 - 21:00/목:12:00 - 21:00,0,37.5615316,126.9254681
1678344758,카페시사,"카페,디저트",서울 동대문구 전농로 217 정우빌딩 1층,02-3394-7141,매일:09:00 - 새벽 00:00,0,37.5835089,127.0532502
37869877,금돼지식당,돼지고기구이,서울 중구 다산로 149,0507-1307-8750,금:11:30 - 23:00 22:15 라스트오더/토:11:30 - 22:00 21:15 라스트오더/일:11:30 - 22:00 21:15 라스트오더/월:11:30 - 23:00 22:15 라스트오더/화:11:30 - 23:00 22:15 라스트오더/수:11:30 - 23:00 22:15 라스트오더/목:11:30 - 23:00 22:15 라스트오더,0,37.5570844,127.0116752
1958246365,비포블루밍,카페,서울 마포구 양화로23길 28 3층,0507-1302-5517,금:12:00 - 22:00/토:12:00 - 22:00/일:12:00 - 22:00/월(3/21):정기휴무 (매달 3번째 월요일)/화:12:00 - 22:00/수:12:00 - 22:00/목:12:00 - 22:00,0,37.5596076,126.9250713
1879365484,33게이트,"카페,디저트",부산 부산진구 서전로37번길 20 A 마동 2층,0507-1345-6918,금:12:00 - 21:00/토:12:00 - 21:00/일:12:00 - 21:00/월:12:00 - 21:00/화:12:00 - 21:00/수:12:00 - 21:00/목:정기휴무 (매주 목요일),0,35.1587537,129.0641039
1659928070,호랑이돈까스,일식당,서울 강남구 봉은사로29길 35 지하2층 12호,0507-1330-0847,금:10:30 - 22:00 15:30 - 17:00 브레이크타임/토:10:30 - 22:00 15:30 - 17:00 브레이크타임/일:정기휴무 (매주 일요일)/월:10:30 - 22:00 15:30 - 17:00 브레이크타임/화:10:30 - 22:00 15:30 - 17:00 브레이크타임/수:10:30 - 22:00 15:30 - 17:00 브레이크타임/목:10:30 - 22:00 15:30 - 17:00 브레이크타임,0,37.5095993,127.0335785
1315589122,대낚식당,한식,서울 성동구 성수이로7가길 15 1층 대낚식당,0507-1377-5573,금:11:30 - 22:00 15:00 - 17:30 브레이크타임/토:15:00 - 22:00/일:15:00 - 22:00/월:정기휴무 (매주 월요일)/화:11:30 - 22:00 15:00 - 17:30 브레이크타임/수:11:30 - 22:00 15:00 - 17:30 브레이크타임/목:11:30 - 22:00 15:00 - 17:30 브레이크타임,0,37.5415541,127.0551987
1173480601,뉴오더클럽,피자,서울 마포구 동교로34길 3,0507-1428-5701,매일:14:00 - 23:00 22:00 라스트오더,0,37.5610692,126.9245592
1418981294,연남물갈비,"육류,고기요리",서울 마포구 월드컵북로4길 13 2층,02-332-9211,목:11:30 - 새벽 02:00 15:00 - 17:00 브레이크타임/금:11:30 - 새벽 02:00 15:00 - 17:00 브레이크타임/토:11:30 - 새벽 02:00/일:11:30 - 새벽 02:00/월:11:30 - 새벽 02:00 15:00 - 17:00 브레이크타임/화:11:30 - 새벽 02:00 15:00 - 17:00 브레이크타임/수:11:30 - 새벽 02:00 15:00 - 17:00 브레이크타임,0,37.5571324,126.9204863
1070992505,간코,일식당,서울 마포구 양화로3길 15 1층,0507-1355-1320,매일:11:30 - 21:30 15:00 - 17:00 브레이크타임 20:30 라스트오더,0,37.5496393,126.9114854
1836213025,도토리다방,"카페,디저트",부산 부산진구 동성로25번길 30,,,0,35.1527968,129.0667699
1368783268,쵸리상경,한식,서울 성동구 서울숲4길 18-8 2층 쵸리상경,0507-1492-0157,매일:11:00 - 22:00 15:00 - 17:00 브레이크타임 14:30 라스트오더,0,37.5470489,127.0426587
13111012,JASE,바(BAR),서울 마포구 와우산로19길 6-11 2층,0507-1410-8220,매일:17:00 - 새벽 02:00,0,37.5517551,126.9228639
1528375856,베이브,"카페,디저트",서울 마포구 월드컵북로4길 29 지층 101호 베이브,02-6404-3737,매일:12:00 - 22:00,0,37.5577029,126.921028
1849652804,랫댓,피자,서울 마포구 동교로 243-4 2층,010-7697-6360,매일:13:00 - 22:00 21:00 라스트오더,0,37.561928,126.9241833
36943175,219레스토랑,"스파게티,파스타전문",서울특별시 마포구 잔다리로3안길 16 오드와빌딩,0507-1326-2199,매일:11:30 - 22:00 15:30 - 17:00 브레이크타임,0,37.5507536,126.9192603
1651733971,드래곤 피자,피자,서울 마포구 동교로30길 6 지하1층,0507-1307-8003,금:17:00 - 22:00/토:12:00 - 22:00 16:00 - 17:00 브레이크타임/일:12:00 - 22:00 16:00 - 17:00 브레이크타임/월:정기휴무 (매주 월요일)/화:17:00 - 22:00/수:17:00 - 22:00/목:17:00 - 22:00,0,37.5605279,126.9245545
1554706925,피자네버슬립스,피자,서울 마포구 양화로6길 73 4층 피자네버슬립스,0507-1414-1820,매일:12:00 - 23:00,0,37.5486179,126.9182982
37624477,더피자보이즈 합정본점,피자,서울 마포구 독막로9길 6 2층,02-322-9896,금:12:00 - 22:00 15:00 - 16:00 브레이크타임/토:12:00 - 22:00/일:12:00 - 21:00/월:12:00 - 22:00 15:00 - 16:00 브레이크타임/화:12:00 - 22:00 15:00 - 16:00 브레이크타임/수:12:00 - 22:00 15:00 - 16:00 브레이크타임/목:12:00 - 22:00 15:00 - 16:00 브레이크타임,0,37.548574,126.9196462
401951052,미도인 종로,양식,서울 종로구 종로 51 지하2층,02-720-5097,금:11:20 - 21:00 14:40 - 17:00 브레이크타임 20:10 라스트오더/토:11:20 - 21:00 15:30 - 17:00 브레이크타임 20:10 라스트오더/일:11:20 - 21:00 15:30 - 17:00 브레이크타임 20:10 라스트오더/월:11:20 - 21:00 14:40 - 17:00 브레이크타임 20:10 라스트오더/화:11:20 - 21:00 14:40 - 17:00 브레이크타임 20:10 라스트오더/수:11:20 - 21:00 14:40 - 17:00 브레이크타임 20:10 라스트오더/목:11:20 - 21:00 14:40 - 17:00 브레이크타임 20:10 라스트오더,0,37.5707534,126.9836385
1870183298,플디 도산점,테마카페,서울 강남구 압구정로42길 24-5 로비스빌딩 4층,0507-1326-6341,매일:12:00 - 21:00,0,37.5272407,127.0345769
1123489755,도산분식 도산공원점,종합분식,서울 강남구 도산대로49길 10-6 젤로빌딩,02-514-5060,"매일:11:30 - 20:30 15:00 - 17:00 브레이크타임 14:30, 20:00 라스트오더",0,37.523689,127.0378994
1066163540,마초야 송파점,"우동,소바",서울 송파구 백제고분로40길 24 1층,0507-1352-1403,매일:11:30 - 21:00 15:00 - 17:00 브레이크타임 20:30 라스트오더,0,37.5025758,127.1070676
1114875415,회산물식당,생선회,서울 용산구 신흥로 143 1층,02-318-8282,금:16:00 - 새벽 00:00/토:12:00 - 새벽 00:00/일:12:00 - 새벽 00:00/월:16:00 - 새벽 00:00/화:16:00 - 새벽 00:00/수:16:00 - 새벽 00:00/목:16:00 - 새벽 00:00,0,37.5459911,126.9816427
1940699496,피슈마라홍탕 부천중동점,중식당,경기 부천시 석천로183번길 11,032-321-3230,매일:11:00 - 22:00 15:00 - 16:00 브레이크타임,0,37.5037477,126.7624837
1911444489,차경,"카페,디저트",전북 전주시 완산구 경기전길 61 차경,0507-1328-4820,금:11:30 - 20:00 19:30 라스트오더/토:10:30 - 21:00 20:30 라스트오더/일:10:30 - 20:00 19:30 라스트오더/월:정기휴무 (매주 월요일)/화:11:30 - 20:00 19:30 라스트오더/수:11:30 - 20:00 19:30 라스트오더/목:11:30 - 20:00 19:30 라스트오더,0,35.8167372,127.1507243
20906193,빨강우산,"맥주,호프",서울 마포구 어울마당로 136-9,070-4213-7928,,0,37.5559046,126.9254908
895457986,카페 노티드 청담,카페,서울 강남구 도산대로53길 15 1층,0507-1426-9399,매일:09:00 - 21:00,0,37.5241931,127.0383006
38299496,킨지 연남점,일식당,서울 마포구 동교로 227-11 2층,0507-1401-6167,매일:11:30 - 22:00,0,37.5607759,126.9235147
1482543689,표표마라탕 사당점,중식당,서울 관악구 남현2길 8,0507-1361-5188,금:11:30 - 22:00/토:11:30 - 22:00/일:11:30 - 22:00/월:11:30 - 22:00/화:정기휴무 (매주 화요일)/수:11:30 - 22:00/목:11:30 - 22:00,0,37.4759939,126.9769455
35394856,애정마라샹궈,중식당,서울 성북구 동소문로20나길 11,0507-1413-3721,금:11:00 - 23:00/토:11:00 - 23:00/일:11:00 - 23:00/월:11:00 - 23:00/화:11:00 - 23:00/수:11:00 - 23:00/목:11:00 - 23:00,0,37.5921744,127.0172505
1942996855,호랑이굴,일식당,경기 안양시 동안구 시민대로 214 다운타운빌딩 1층 109호 호랑이굴,0507-1337-1244,금:11:30 - 새벽 00:00 15:00 - 17:00 브레이크타임/토:11:30 - 새벽 00:00 15:00 - 16:00 브레이크타임/일:11:30 - 새벽 00:00 15:00 - 16:00 브레이크타임/월:11:30 - 새벽 00:00 15:00 - 17:00 브레이크타임/화:11:30 - 새벽 00:00 15:00 - 17:00 브레이크타임/수:11:30 - 새벽 00:00 15:00 - 17:00 브레이크타임/목:11:30 - 새벽 00:00 15:00 - 17:00 브레이크타임,0,37.3919353,126.9548145
1689326866,더 라운지,"카페,디저트",전남 순천시 왕지4길 18 3층 더라운지,0507-1477-3131,금:11:00 - 21:00 20:00 라스트오더/토:11:00 - 21:00 20:00 라스트오더/일:13:00 - 21:00 20:00 라스트오더/월:11:00 - 21:00 20:00 라스트오더/화:11:00 - 21:00 20:00 라스트오더/수:11:00 - 21:00 20:00 라스트오더/목:11:00 - 21:00 20:00 라스트오더,0,34.9680887,127.5253358
850445885,남문통닭 본점,"치킨,닭강정",경기 수원시 팔달구 정조로800번길 16,1522-8818,매일:12:00 - 22:00,0,37.279436,127.0176436
20510754,달콤한거짓말,케이크전문,"서울 마포구 독막로 61-4 1, 2층",02-3141-3338,금:11:00 - 23:00/토:11:00 - 23:00/일:11:00 - 23:00/월:정기휴무 (매주 월요일)/화:11:00 - 23:00/수:11:00 - 23:00/목:11:00 - 23:00,0,37.5480795,126.9205945
37072845,사이드쇼,떡볶이,서울 강남구 봉은사로 524 코엑스인터콘티넨탈서울,070-4148-5515,매일:11:00 - 22:00 20:40 라스트오더,0,37.5128784,127.0572911
1546544014,88파운드,베이커리,서울 마포구 연남로13길 9 101호,0507-1318-4614,금:12:00 - 20:00/토:12:00 - 20:00/일:12:00 - 20:00/월:정기휴무 (매주 월요일)/화:정기휴무 (매주 화요일)/수:12:00 - 20:00/목:12:00 - 20:00,0,37.5667114,126.9168394
33276367,교동석갈비,한식,전북 전주시 완산구 태조로 26 마패,063-288-2282,금:10:50 - 20:30 20:00 라스트오더/토:10:50 - 21:00 20:30 라스트오더/일:10:50 - 21:00 20:30 라스트오더/월:10:50 - 20:30 20:00 라스트오더/화:10:50 - 20:30 20:00 라스트오더/수:10:50 - 20:30 20:00 라스트오더/목:10:50 - 20:30 20:00 라스트오더,0,35.8146514,127.1519984
1323998281,릴린,아시아음식,서울 마포구 동교로34길 17,0507-1410-6036,금:11:30 - 21:00 15:00 - 17:00 브레이크타임 20:30 라스트오더/토:11:30 - 21:00 15:00 - 17:00 브레이크타임 20:30 라스트오더/일:11:30 - 21:00 15:00 - 17:00 브레이크타임 20:30 라스트오더/월:11:30 - 21:00 15:00 - 17:00 브레이크타임 20:30 라스트오더/화:정기휴무 (매주 화요일)/수:11:30 - 21:00 15:00 - 17:00 브레이크타임 20:30 라스트오더/목:11:30 - 21:00 15:00 - 17:00 브레이크타임 20:30 라스트오더,0,37.5609684,126.9252934
1976097430,키커피 컴퍼니,카페,서울 성동구 왕십리로 269 1층 키커피,0507-1302-8893,금:10:00 - 21:00/토:10:00 - 21:00/일:10:00 - 21:00/월:정기휴무 (매주 월요일)/화:10:00 - 21:00/수:10:00 - 21:00/목:10:00 - 21:00,0,37.5585817,127.0375193
1781165370,잭슨피자 압구정점,피자,서울 강남구 압구정로 144 107호,02-512-0717,매일:11:00 - 22:00,0,37.5249808,127.0246049
1160097068,빌리앤오티스,베이커리,서울 강남구 선릉로76길 5 1층 카페 빌리앤오티스,02-565-3368,금:11:00 - 18:00/토:11:00 - 18:00/일:정기휴무 (매주 일요일)/월:정기휴무 (매주 월요일)/화:11:00 - 18:00/수:11:00 - 18:00/목:11:00 - 18:00,0,37.5014827,127.050974
152310007,제일곱창 본점,"곱창,막창,양",서울 성동구 고산자로 281,010-8690-9792,금:12:00 - 22:00/토:12:00 - 22:00/일:정기휴무 (매주 일요일)/월:12:00 - 22:00/화:12:00 - 22:00/수:12:00 - 22:00/목:12:00 - 22:00,0,37.5648198,127.0359945
1712521730,구욱희씨,베이커리,"서울 성동구 서울숲4길 12-22 1,2층",0507-1413-7799,매일:12:00 - 22:00,0,37.5471087,127.0418701
1500504643,카페레이어드 연남점,"카페,디저트",서울 마포구 성미산로 161-4,,매일:11:00 - 22:00,0,37.5649954,126.9242086
1103092572,호족반,한식,서울 강남구 언주로164길 39 1층,0507-1399-3353,"금:11:30 - 21:30 15:30 - 17:30 브레이크타임 15:00, 21:00 라스트오더/토:11:30 - 21:30 21:00 라스트오더/일:11:30 - 21:30 21:00 라스트오더/월:11:30 - 21:30 15:30 - 17:30 브레이크타임 15:00, 21:00 라스트오더/화:11:30 - 21:30 15:30 - 17:30 브레이크타임 15:00, 21:00 라스트오더/수:11:30 - 21:30 15:30 - 17:30 브레이크타임 15:00, 21:00 라스트오더/목:11:30 - 21:30 15:30 - 17:30 브레이크타임 15:00, 21:00 라스트오더",0,37.5254483,127.036756
1966812335,427월곡닭갈비,닭갈비,서울 성북구 화랑로 170,02-959-4620,금:16:30 - 23:00 22:00 라스트오더/토:16:30 - 23:00 22:00 라스트오더/일:16:30 - 23:00 22:00 라스트오더/월:정기휴무 (매주 월요일)/화:16:30 - 23:00 22:00 라스트오더/수:16:30 - 23:00 22:00 라스트오더/목:16:30 - 23:00 22:00 라스트오더,0,37.606695,127.0495671
1708120554,소바식당,"우동,소바",서울 성동구 연무장7가길 6,02-6339-1552,매일:11:00 - 21:00 15:00 - 17:00 브레이크타임,0,37.5430115,127.0549945
1455299135,크림라벨 서울숲점,케이크전문,서울 성동구 서울숲2길 34 1층,0507-1463-4557,금:12:00 - 20:00/토:12:00 - 20:00/일:12:00 - 20:00/월:정기휴무 (매주 월요일)/화:12:00 - 20:00/수:12:00 - 20:00/목:12:00 - 20:00,0,37.5465529,127.0423085
37272611,디노브런치,브런치,부산 부산진구 전포대로199번길 12,010-2103-9947,토:10:30 - 20:00/일:10:30 - 20:00/월:정기휴무 (매주 월요일)/화:10:30 - 20:00/수:10:30 - 20:00/목:10:30 - 20:00/금:10:30 - 20:00,0,35.1546175,129.0644392
1480979852,잠수교집 5호점,한식,서울 강남구 언주로153길 14,02-543-0434,매일:11:30 - 22:00,0,37.5227486,127.0320828
1327035832,하이디라오 부산역점,중식당,부산 동구 중앙대로 175,0507-1361-8907,토:10:00 - 23:00/일:10:00 - 23:00/월:10:00 - 23:00/화:10:00 - 23:00/수:10:00 - 23:00/목:10:00 - 23:00/금:10:00 - 23:00,0,35.113298,129.0383208
338405512,미즈컨테이너 홍대점,이탈리아음식,서울 마포구 와우산로18길 32,070-4047-9295,,0,37.5516095,126.9240669
31305657,퍼지네이블 광안점,바(BAR),부산 수영구 광안해변로 177,0507-1316-6343,매일:11:30 - 새벽 05:00,0,35.1504671,129.1158045
1926429712,해목,일식당,서울 강남구 선릉로145길 14,02-6203-0021,매일:11:00 - 22:00 15:00 - 17:00 브레이크타임 21:00 라스트오더,0,37.5215365,127.0383111
1256627119,안다미로 팬케이크,"카페,디저트",서울 광진구 아차산로25길 8 2층 안다미로 팬케이크,0507-1396-7773,토:13:00 - 21:00 20:00 라스트오더/일:13:00 - 21:00 20:00 라스트오더/월:13:00 - 21:00 20:00 라스트오더/화:13:00 - 21:00 20:00 라스트오더/수:13:00 - 21:00 20:00 라스트오더/목:13:00 - 21:00 20:00 라스트오더/금:13:00 - 21:00 20:00 라스트오더,0,37.5417971,127.0667596
1300236894,천지샤브샤브 2호점,샤브샤브,서울 광진구 아차산로29길 22 2층,02-466-6334,매일:11:30 - 22:00,0,37.5418067,127.0686316
37654111,뚜벅스 광안점,"카페,디저트",부산 수영구 광안해변로 239 7층,051-752-3944,토:10:00 - 23:00/일:10:00 - 22:00/월:10:00 - 22:00/화:10:00 - 22:00/수:10:00 - 22:00/목:10:00 - 22:00/금:10:00 - 23:00,0,35.1547779,129.120108
1816689066,다온카츠,돈가스,서울 은평구 연서로29길 21-11 1.5층 다온카츠,0507-1449-9005,"매일:11:30 - 21:30 15:30 - 17:00 브레이크타임 15:00, 21:00 라스트오더",0,37.6189289,126.9178881
1564035182,코주방,요리주점,경기 고양시 일산동구 대산로11번길 5-20 1층,0507-1434-5201,토:16:00 - 23:00/일:16:00 - 23:00/월:16:00 - 23:00/화:정기휴무 (매주 화요일)/수:16:00 - 23:00/목:16:00 - 23:00/금:16:00 - 23:00,0,37.6687524,126.7749873
1343969288,콘피에르,양식,서울 강남구 도산대로49길 10-2 2F,0507-1373-0827,토:12:00 - 21:30 14:30 - 18:00 브레이크타임/일:12:00 - 21:30 14:30 - 18:00 브레이크타임/월:12:00 - 21:30 14:30 - 18:00 브레이크타임/화:12:00 - 21:30 14:30 - 18:00 브레이크타임/수:12:00 - 21:30 14:30 - 18:00 브레이크타임/목:12:00 - 21:30 14:30 - 18:00 브레이크타임/금:12:00 - 21:30 14:30 - 18:00 브레이크타임,0,37.5235655,127.037583
401999571,꾸오이아노,"카페,디저트",부산 부산진구 서전로 61 2층,080-4047-0851,매일:12:00 - 20:00,0,35.1579566,129.0663554
37915747,카페그랑주,카페,서울 마포구 홍익로5길 13 동신빌딩 B01,0507-1495-3132,매일:09:00 - 22:00,0,37.5541591,126.9215629
1134372647,상수김치삼겹살,돼지고기구이,서울 마포구 독막로 76 1층 101호,02-6012-9808,매일:16:00 - 23:50 23:20 라스트오더,0,37.5476161,126.921701
1772140077,청수당갤러리,"카페,디저트",서울 강남구 도산대로15길 32-4 1층,0507-1372-0620,토:11:30 - 22:00 21:30 라스트오더/일:11:30 - 22:00 21:30 라스트오더/월:11:30 - 22:00 21:30 라스트오더/화:11:30 - 22:00 21:30 라스트오더/수:11:30 - 22:00 21:30 라스트오더/목:11:30 - 22:00 21:30 라스트오더/금:11:30 - 22:00 21:30 라스트오더,0,37.5206435,127.0239065
1237226747,청춘양식당,양식,대구 달서구 서당로9길 10,053-584-5304,매일:11:00 - 23:00 22:00 라스트오더,0,35.8562833,128.4949536
1146063315,무드문,요리주점,경기 부천시 부일로459번길 33 5층,0507-1435-1981,매일:17:00 - 새벽 04:00새벽 03:30 라스트오더,0,37.4875819,126.7814441
1920277706,잠수교집 성수점,돼지고기구이,서울 성동구 아차산로 137 1층 잠수교집,02-465-0434,매일:11:30 - 23:00,0,37.5438175,127.059378
1729422549,돈부리파스타 홍대점,"스파게티,파스타전문",서울 마포구 양화로 156 1층 돈부리파스타,0507-1369-7174,토:11:00 - 23:00 22:30 라스트오더/일:11:00 - 23:00 22:30 라스트오더/월:11:00 - 23:00 15:30 - 17:00 브레이크타임 22:30 라스트오더/화:11:00 - 23:00 15:30 - 17:00 브레이크타임 22:30 라스트오더/수:11:00 - 23:00 15:30 - 17:00 브레이크타임 22:30 라스트오더/목:11:00 - 23:00 15:30 - 17:00 브레이크타임 22:30 라스트오더/금:11:00 - 23:00 15:30 - 17:00 브레이크타임 22:30 라스트오더,0,37.5560982,126.9234581
32481856,두툼참숯초벌구이,"육류,고기요리",대구 수성구 범안로3길 81,053-783-8685,매일:17:00 - 새벽 02:00,0,35.8199926,128.6366549
1976985071,카페코지만촌,"카페,디저트",대구 수성구 화랑로2길 47,0507-1339-4156,매일:11:00 - 21:00,0,35.8682094,128.6333086
37869873,좋은자리,"맥주,호프",서울 강남구 강남대로152길 67,010-4801-6074,,0,37.5190083,127.0245403
1647068883,폴인팬케이크 강남점,"카페,디저트",서울 강남구 봉은사로6길 29 매사빌딩 1층,02-444-8952,토:12:00 - 22:00 21:00 라스트오더/일:12:00 - 22:00 21:00 라스트오더/월:12:00 - 22:00 21:00 라스트오더/화:12:00 - 22:00 21:00 라스트오더/수:12:00 - 22:00 21:00 라스트오더/목:12:00 - 22:00 21:00 라스트오더/금:12:00 - 22:00 21:00 라스트오더,0,37.5031171,127.0275269
1007886570,후추포인트,양식,서울 강남구 봉은사로6길 30 1층,02-565-1540,토:11:00 - 22:00 16:00 - 17:00 브레이크타임/일:11:00 - 22:00 16:00 - 17:00 브레이크타임/월:11:00 - 22:00 16:00 - 17:00 브레이크타임/화:11:00 - 22:00 16:00 - 17:00 브레이크타임/수:11:00 - 22:00 16:00 - 17:00 브레이크타임/목:11:00 - 22:00 16:00 - 17:00 브레이크타임/금:11:00 - 22:00 16:00 - 17:00 브레이크타임,0,37.5030823,127.0272802
1768254146,주섬주섬,요리주점,서울 마포구 와우산로21길 36-12,0507-1325-5230,토:16:00 - 23:00 15:00 - 16:00 브레이크타임/일:16:00 - 23:00 15:00 - 16:00 브레이크타임/월:정기휴무 (매주 월요일)/화:16:00 - 23:00/수:16:00 - 23:00/목:16:00 - 23:00/금:16:00 - 23:00,0,37.5529738,126.9221287
1595745527,비터스,바(BAR),서울 마포구 홍익로 3-30 B1,0507-1396-1229,매일:15:00 - 21:00,0,37.5529378,126.9230457
1467566565,거북이의 꿈,일본식라면,서울 마포구 성미산로 190-31 지1층,0507-1368-2633,토:11:30 - 21:00 15:30 - 17:00 브레이크타임 20:30 라스트오더/일:11:30 - 21:00 15:30 - 17:00 브레이크타임 20:30 라스트오더/월:정기휴무 (매주 월요일)/화:11:30 - 21:00 15:30 - 17:00 브레이크타임 20:30 라스트오더/수:11:30 - 21:00 15:30 - 17:00 브레이크타임 20:30 라스트오더/목:11:30 - 21:00 15:30 - 17:00 브레이크타임 20:30 라스트오더/금:11:30 - 21:00 15:30 - 17:00 브레이크타임 20:30 라스트오더,0,37.5625386,126.9258367
1715603019,그계절,"카페,디저트",제주 제주시 구좌읍 한동로 119 1동,010-3140-3121,토:11:00 - 17:30/일:11:00 - 17:30/월:11:00 - 17:30/화:11:00 - 17:30/수:11:00 - 17:30/목:11:00 - 17:30/금:11:00 - 17:30,0,33.5318206,126.818504
17202348,태백칼국수,"칼국수,만두",전북 익산시 중앙로 15-5,063-855-1529,"토:11:00 - 19:30/일:11:00 - 19:30/월(3/28):정기휴무 (매달 2, 4번째 월요일)/화:11:00 - 19:30/수:11:00 - 19:30/목:11:00 - 19:30/금:11:00 - 19:30",0,35.9400423,126.9487863
1404554336,해쉬,양식,부산 부산진구 전포대로199번길 43,010-2916-0727,매일:11:00 - 21:00 20:30 라스트오더,0,35.1542791,129.06285
13293961,아트몬스터,자동차스티커,경북 포항시 북구 장량로114번길 5-2,0507-1400-6035,토:정보없음/일:정기휴무 (매주 일요일)/월:10:00 - 20:00/화:10:00 - 20:00/수:10:00 - 20:00/목:10:00 - 20:00/금:10:00 - 20:00,0,36.0810747,129.3929547
37207834,안녕파스타씨,"스파게티,파스타전문",서울 마포구 잔다리로6길 36 동천빌딩 1층 안녕파스타씨,02-3144-3921,매일:11:30 - 22:00 21:30 라스트오더,0,37.5522554,126.9212072
1128186981,소코아 일산점,카레,경기 고양시 일산동구 산두로 53 1층 소코아,031-926-3104,토:11:30 - 20:40 15:00 - 17:00 브레이크타임/일:11:30 - 20:40 15:00 - 17:00 브레이크타임/월:11:30 - 20:40 15:00 - 17:00 브레이크타임/화:11:30 - 20:40 15:00 - 17:00 브레이크타임/수:11:30 - 20:40 15:00 - 17:00 브레이크타임/목:11:30 - 20:40 15:00 - 17:00 브레이크타임/금:11:30 - 20:40 15:00 - 17:00 브레이크타임,0,37.66306,126.7888635
37036424,두툼,돼지고기구이,서울 중구 중림로 10 1층,02-392-8592,토:13:00 - 22:00 15:00 - 15:30 브레이크타임 21:45 라스트오더/일:13:00 - 22:00 15:00 - 15:30 브레이크타임 21:45 라스트오더/월:15:30 - 22:00 21:45 라스트오더/화:15:30 - 22:00 21:45 라스트오더/수:15:30 - 22:00 21:45 라스트오더/목:15:30 - 22:00 21:45 라스트오더/금:15:30 - 22:00 21:45 라스트오더,0,37.558579,126.964875
1733564552,연남동질리,양식,서울 마포구 동교로38길 23 지층 우측,02-6949-5651,토:12:00 - 22:00/일:12:00 - 22:00/월:12:00 - 22:00/화:정기휴무 (매주 화요일)/수:12:00 - 22:00/목:12:00 - 22:00/금:12:00 - 22:00,0,37.5618313,126.925498
20083908,금강산감자탕,감자탕,서울 용산구 한강대로21길 17-14 금강산감자탕,02-792-5533,,0,37.5264691,126.9635458
1106273286,네시사분,"카페,디저트",서울 마포구 성미산로 190-8,02-6405-3877,토:13:00 - 21:00/일:13:00 - 21:00/월:정기휴무 (매주 월요일)/화:13:00 - 21:00/수:13:00 - 21:00/목:13:00 - 21:00/금:13:00 - 21:00,0,37.5627399,126.9258994
35781952,온달집 본점,"육류,고기요리",서울 강남구 강남대로152길 28,02-511-5262,매일:12:00 - 21:00,0,37.5176126,127.0217236
551867941,스테이터 강남본점,"스테이크,립",서울 강남구 봉은사로4길 29 1층 스테이터,02-363-1316,토:11:30 - 22:00 21:00 라스트오더/일:11:30 - 22:00 21:00 라스트오더/월:11:30 - 22:00 15:30 - 17:00 브레이크타임 21:00 라스트오더/화:11:30 - 22:00 15:30 - 17:00 브레이크타임 21:00 라스트오더/수:11:30 - 22:00 15:30 - 17:00 브레이크타임 21:00 라스트오더/목:11:30 - 22:00 15:30 - 17:00 브레이크타임 21:00 라스트오더/금:11:30 - 22:00 15:30 - 17:00 브레이크타임 21:00 라스트오더,0,37.5029804,127.0268841
1774734875,바오하우스,중식당,부산 부산진구 서전로38번길 62-9 2층,0507-1324-1031,토:11:30 - 21:00 16:00 - 17:00 브레이크타임 20:00 라스트오더/일:11:30 - 21:00 16:00 - 17:00 브레이크타임 20:00 라스트오더/월:11:30 - 21:00 15:00 - 17:00 브레이크타임 20:00 라스트오더/화:11:30 - 21:00 15:00 - 17:00 브레이크타임 20:00 라스트오더/수:11:30 - 21:00 15:00 - 17:00 브레이크타임 20:00 라스트오더/목:11:30 - 21:00 15:00 - 17:00 브레이크타임 20:00 라스트오더/금:11:30 - 21:00 15:00 - 17:00 브레이크타임 20:00 라스트오더,0,35.154896,129.063348
35807289,볼트스테이크하우스,"스테이크,립",서울 강남구 압구정로72길 22,02-544-9235,토:11:00 - 23:00 16:00 - 17:00 브레이크타임/일:11:00 - 23:00 16:00 - 17:00 브레이크타임/월:12:00 - 23:00 15:00 - 17:00 브레이크타임/화:12:00 - 23:00 15:00 - 17:00 브레이크타임/수:12:00 - 23:00 15:00 - 17:00 브레이크타임/목:12:00 - 23:00 15:00 - 17:00 브레이크타임/금:12:00 - 23:00 15:00 - 17:00 브레이크타임,0,37.5250078,127.0449883
1553150505,홍대씨부엉,떡볶이,서울 마포구 와우산로21길 28-6,0507-1378-5253,토:11:00 - 새벽 00:00/일:11:00 - 새벽 00:00/월:11:00 - 새벽 00:00/화:11:00 - 새벽 00:00/수:11:00 - 새벽 00:00/목:11:00 - 새벽 00:00/금:11:00 - 새벽 00:00,0,37.5525805,126.9223721
1979935053,야무야무,"카페,디저트",부산 부산진구 전포대로255번길 22 1층,0507-1374-2835,매일:11:00 - 21:00 20:00 라스트오더,0,35.1594884,129.0641873
1430353100,카나이라멘,일본식라면,부산 부산진구 서전로38번길 43-13 1층 109호 카나이라멘,0507-1495-5557,토:11:30 - 23:00 22:00 라스트오더/일:11:30 - 23:00 22:00 라스트오더/월:정기휴무 (매주 월요일)/화:11:30 - 23:00 22:00 라스트오더/수:11:30 - 23:00 22:00 라스트오더/목:11:30 - 23:00 22:00 라스트오더/금:11:30 - 23:00 22:00 라스트오더,0,35.1559499,129.0645594
19942726,서강껍데기소금구이소막창,"육류,고기요리",서울 마포구 월드컵로 36,02-337-5541,매일:16:00 - 새벽 04:00,0,37.5526921,126.9124849
1079207241,프렌즈클럽,이탈리아음식,부산 부산진구 동성로87번길 29-1 1층,010-9012-4836,매일:11:30 - 22:00 21:00 라스트오더,0,35.1580211,129.0666892
1693133389,유루유루,돈가스,부산 해운대구 우동1로 66 2층,070-7677-0425,"토:11:30 - 21:00 20:30 라스트오더/일:11:30 - 21:00 20:30 라스트오더/월:11:30 - 21:00 15:00 - 17:00 브레이크타임 14:30, 20:30 라스트오더/화:11:30 - 21:00 15:00 - 17:00 브레이크타임 14:30, 20:30 라스트오더/수:11:30 - 21:00 15:00 - 17:00 브레이크타임 14:30, 20:30 라스트오더/목:정기휴무 (매주 목요일)/금:11:30 - 21:00 15:00 - 17:00 브레이크타임 14:30, 20:30 라스트오더",0,35.1673407,129.1575622
1221839422,연남동그라미,"카페,디저트",서울 마포구 성미산로32길 10 1층,010-6837-0350,토:12:00 - 18:30/일:12:00 - 18:30/월:12:00 - 18:30/화:12:00 - 18:30/수:정기휴무 (매주 수요일)/목:12:00 - 18:30/금:12:00 - 18:30,0,37.5639321,126.9245422
1179910659,작당모의,"카페,디저트",서울 마포구 동교로32길 19 1층,070-8838-3815,매일:12:00 - 21:00,0,37.5606176,126.9254102
1128687831,두넛샵 광안리점,도넛,"부산 수영구 광안해변로 197 1 ,2층",0507-1424-0928,토:10:00 - 새벽 00:00/일:10:00 - 새벽 00:00/월:10:00 - 새벽 00:00/화:10:00 - 새벽 00:00/수:10:00 - 새벽 00:00/목:10:00 - 새벽 00:00/금:10:00 - 새벽 00:00,0,35.1518451,129.1169043
1294117742,경양카츠 강남점,돈가스,서울 강남구 강남대로102길 31,02-6012-5579,토:11:30 - 20:30 14:30 - 17:00 브레이크타임 20:15 라스트오더/일:11:30 - 20:30 14:30 - 17:00 브레이크타임 20:15 라스트오더/월:11:30 - 20:30 14:30 - 17:00 브레이크타임 20:15 라스트오더/화:11:30 - 20:30 14:30 - 17:00 브레이크타임 20:15 라스트오더/수:11:30 - 20:30 14:30 - 17:00 브레이크타임 20:15 라스트오더/목:11:30 - 20:30 14:30 - 17:00 브레이크타임 20:15 라스트오더/금:11:30 - 20:30 14:30 - 17:00 브레이크타임 20:15 라스트오더,0,37.503095,127.0277714
11491447,송악산,"산,고개",제주 서귀포시 대정읍 송악관광로 421-1,064-120,,0,33.2077573,126.2908794
31992305,피탕김탕,중식당,충남 공주시 한적2길 41-11,041-856-3366,토:12:00 - 새벽 00:00 15:00 - 17:00 브레이크타임/일:12:00 - 새벽 00:00 15:00 - 17:00 브레이크타임/월:정기휴무 (매주 월요일)/화:12:00 - 새벽 00:00 15:00 - 17:00 브레이크타임/수:12:00 - 새벽 00:00 15:00 - 17:00 브레이크타임/목:12:00 - 새벽 00:00 15:00 - 17:00 브레이크타임/금:12:00 - 새벽 00:00 15:00 - 17:00 브레이크타임,0,36.4779967,127.1390196
1334089514,해피치즈스마일 연남점,떡볶이,서울 마포구 동교로 244-1 2층 해피치즈스마일 연남점,0507-1336-6703,매일:11:30 - 21:30,0,37.5617801,126.9244879
86471200,쿠시노주방,이자카야,서울 마포구 동교로 218-1 지하 1층 쿠시노주방,010-7704-5155,매일:15:00 - 23:00,0,37.5594951,126.9239382
1492610667,모루식당,카레,대구 중구 동덕로30길 69-9,0507-1359-4013,토:11:30 - 21:00 15:00 - 17:00 브레이크타임/일:정기휴무 (매주 일요일)/월:정기휴무 (매주 월요일)/화:11:30 - 21:00 15:00 - 17:00 브레이크타임/수:11:30 - 21:00 15:00 - 17:00 브레이크타임/목:11:30 - 21:00 15:00 - 17:00 브레이크타임/금:11:30 - 21:00 15:00 - 17:00 브레이크타임,0,35.8669953,128.6076837
1039109514,odd,케이크전문,서울 마포구 월드컵로10길 17 1층,0507-1333-0521,토:11:00 - 21:00/일:11:00 - 21:00/월:정기휴무 (매주 월요일)/화:11:00 - 21:00/수:11:00 - 21:00/목:11:00 - 21:00/금:11:00 - 21:00,0,37.5548406,126.9126815
1202290143,윌리스엘에이피자,피자,서울 성동구 서울숲2길 15 1층,02-499-9069,토:11:30 - 22:00/일:11:30 - 22:00/월:정기휴무 (매주 월요일)/화:11:30 - 22:00/수:11:30 - 22:00/목:11:30 - 22:00/금:11:30 - 22:00,0,37.5472817,127.0403097
34647033,이대명과 부평점,"과자,사탕,초코렛",부산 중구 광복로 2,0507-1347-3427,매일:09:30 - 21:30,0,35.0993924,129.0253678
540281014,HOPE GARDEN HANNAM,"카페,디저트",서울 용산구 이태원로54가길 13,02-790-6837,매일:12:00 - 21:00,0,37.5371389,127.0017696
1176823046,솔솥 한남점,한식,서울 용산구 이태원로54가길 26 지1층,070-4295-7995,토:11:30 - 21:00 15:00 - 17:00 브레이크타임/일:11:30 - 21:00 15:00 - 17:00 브레이크타임/월:11:30 - 21:00 15:00 - 17:00 브레이크타임/화:11:30 - 21:00 15:00 - 17:00 브레이크타임/수:11:30 - 21:00 15:00 - 17:00 브레이크타임/목:11:30 - 21:00 15:00 - 17:00 브레이크타임/금:11:30 - 21:00 15:00 - 17:00 브레이크타임,0,37.5367911,127.0013614
1157720537,하루모텔,여관,부산 부산진구 전포대로306번길 46,010-7304-7414,,0,35.1663272,129.0669563
38016758,녹마이,태국음식,서울 성동구 왕십리로14길 18,0507-1401-6574,토:11:30 - 20:00 15:00 - 17:00 브레이크타임/일:정기휴무 (매주 일요일)/월:11:30 - 20:00 14:30 - 17:00 브레이크타임/화:11:30 - 20:00 14:30 - 17:00 브레이크타임/수:11:30 - 20:00 14:30 - 17:00 브레이크타임/목:11:30 - 20:00 14:30 - 17:00 브레이크타임/금:11:30 - 20:00 14:30 - 17:00 브레이크타임,0,37.5486192,127.0456124
18377257,우리바다수산,생선회,서울 마포구 월드컵로 102,02-322-3489,토:12:00 - 새벽 03:00새벽 01:30 라스트오더/일:12:00 - 새벽 02:00새벽 00:30 라스트오더/월:12:00 - 새벽 03:00새벽 01:30 라스트오더/화:12:00 - 새벽 03:00새벽 01:30 라스트오더/수:12:00 - 새벽 03:00새벽 01:30 라스트오더/목:12:00 - 새벽 03:00새벽 01:30 라스트오더/금:12:00 - 새벽 03:00새벽 01:30 라스트오더,0,37.5577776,126.9088973
31509806,코다차야 강남점,이자카야,서울 강남구 강남대로 468,02-3453-6666,매일:17:00 - 새벽 00:00 23:30 라스트오더,0,37.5041598,127.0251636
1083458000,헤이블,"카페,디저트",경기 고양시 일산동구 일산로286번길 7-10 1층 헤이블카페,0507-1338-5094,토:11:00 - 22:00/일:11:00 - 22:00/월:11:00 - 22:00/화:정기휴무 (매주 화요일)/수:11:00 - 22:00/목:11:00 - 22:00/금:11:00 - 22:00,0,37.661934,126.7864267
1223503573,쭈꾸미도사 경주성건점,주꾸미요리,경북 경주시 금성로415번길 9 1층,0507-1370-0033,토:16:00 - 새벽 00:00/일:16:00 - 새벽 00:00/월:16:00 - 새벽 00:00/화:정기휴무 (매주 화요일)/수:16:00 - 새벽 00:00/목:16:00 - 새벽 00:00/금:16:00 - 새벽 00:00,0,35.8546868,129.2058961
1283563594,카페혜화동,"카페,디저트",서울 종로구 창경궁로26길 40 2층,0507-1340-2005,매일:12:00 - 22:00 21:30 라스트오더,0,37.581905,126.999919
1165474756,튜토리얼,카페,서울 마포구 와우산로 39-15 튜토리얼 (Tutorial),010-8238-4975,매일:12:00 - 22:00,0,37.548043,126.9221337
1464801772,무쇠김치삼겹 월성점,"육류,고기요리",대구 달서구 상원로 193 1층,0507-1403-7419,매일:16:00 - 23:00,0,35.8237484,128.5254817
1912032850,무던,아이스크림,서울 종로구 성균관로4길 3,0507-1426-1041,토:13:00 - 21:00/일:정기휴무 (매주 일요일)/월:정기휴무 (매주 월요일)/화:13:00 - 21:00/수:13:00 - 21:00/목:13:00 - 21:00/금:13:00 - 21:00,0,37.5845898,126.9975863
1763998611,김천재의육회반한연어 잠실새내점,요리주점,서울 송파구 백제고분로7길 25 2층,02-420-9994,매일:10:30 - 새벽 01:00,0,37.5108154,127.0817103
1449356762,용용선생,요리주점,서울 성동구 마조로3가길 15,0507-1311-5269,토:16:00 - 새벽 03:00/일:16:00 - 새벽 03:00/월:16:00 - 새벽 03:00/화:16:00 - 새벽 03:00/수:16:00 - 새벽 03:00/목:16:00 - 새벽 03:00/금:16:00 - 새벽 03:00,0,37.5592765,127.0399101
31197801,아이엠어버거 홍대점,햄버거,서울 마포구 와우산로30길 13,02-338-8507,매일:11:00 - 20:00 19:30 라스트오더,0,37.5541552,126.9299687
1993672299,뭄뭄 반월당점,일식당,대구 중구 달구벌대로 2095 삼성생명 5층,053-219-4899,토:11:30 - 21:30 15:00 - 17:00 브레이크타임/일:정기휴무 (매주 일요일)/월:11:30 - 21:30 15:00 - 17:00 브레이크타임/화:11:30 - 21:30 15:00 - 17:00 브레이크타임/수:11:30 - 21:30 15:00 - 17:00 브레이크타임/목:11:30 - 21:30 15:00 - 17:00 브레이크타임/금:11:30 - 21:30 15:00 - 17:00 브레이크타임,0,35.8662996,128.5928006
1754598643,퍼퓰러,베트남음식,서울 중구 을지로44길 2 2층,0507-1322-9119,매일:10:00 - 새벽 00:00,0,37.5659791,127.0065854
1327314304,페어링테이블,이탈리아음식,대구 중구 동성로2길 4-3,010-4165-2251,매일:12:00 - 22:00,0,35.8662663,128.5960025
1727703444,롤링파스타 동성로점,이탈리아음식,대구 중구 동성로6길 52 2층,0507-1372-6007,토:11:30 - 22:00/일:11:30 - 22:00/월:11:30 - 22:00 15:00 - 17:00 브레이크타임 14:30 라스트오더/화:11:30 - 22:00 15:00 - 17:00 브레이크타임 14:30 라스트오더/수:11:30 - 22:00 15:00 - 17:00 브레이크타임 14:30 라스트오더/목:11:30 - 22:00 15:00 - 17:00 브레이크타임 14:30 라스트오더/금:11:30 - 22:00 15:00 - 17:00 브레이크타임 14:30 라스트오더,0,35.8684453,128.5981877
1248892060,바스버거 을지로점,햄버거,서울 중구 을지로12길 11 시어소호텔 지하1층,02-2272-6652,토:12:00 - 22:00 15:00 - 16:30 브레이크타임/일:12:00 - 22:00 15:00 - 16:30 브레이크타임/월:11:00 - 22:30 15:00 - 16:30 브레이크타임/화:11:00 - 22:30 14:30 - 16:30 브레이크타임/수:11:00 - 22:30 15:00 - 16:30 브레이크타임/목:11:00 - 22:30 15:00 - 16:30 브레이크타임/금:11:00 - 22:30 15:00 - 16:30 브레이크타임,0,37.5656592,126.9912499
34325335,더캐스크,"맥주,호프",서울 마포구 잔다리로3안길 27,02-1644-7574,토:13:00 - 23:00/일:13:00 - 23:00/월:16:00 - 23:00/화:16:00 - 23:00/수:13:00 - 23:00/목:16:00 - 23:00/금:13:00 - 23:00,0,37.5504239,126.9198183
1067145031,연남토마 강남점,퓨전음식,서울 강남구 강남대로106길 15 1층,0507-1375-2726,매일:11:30 - 21:30 20:30 라스트오더,0,37.5031403,127.0268168
37725797,만석곱창구이,"곱창,막창,양",서울 관악구 봉천로 491-1,02-876-2496,매일:16:00 - 새벽 03:00,0,37.4817598,126.9546564
1884084183,플루프커피,"카페,디저트",서울 마포구 동교로46길 12 102호,0507-1491-7757,,0,37.562428,126.9253802
1234272605,용용선생 강남역점,요리주점,서울 강남구 강남대로96길 17,0507-1395-5369,토:17:00 - 새벽 01:00/일:17:00 - 새벽 01:00/월:17:00 - 새벽 01:00/화:17:00 - 새벽 01:00/수:17:00 - 새벽 01:00/목:17:00 - 새벽 01:00/금:17:00 - 새벽 01:00,0,37.5001243,127.0284145
1241375855,미삼,돼지고기구이,서울 마포구 포은로 11 1층.2호,02-332-1892,토:15:00 - 22:00/일:정기휴무 (매주 일요일)/월:15:00 - 21:00/화:15:00 - 21:00/수:15:00 - 21:00/목:15:00 - 22:00/금:15:00 - 22:00,0,37.5492492,126.9092391
1836873478,아니따,"스파게티,파스타전문",제주 제주시 한림읍 금악로1길 1,0507-1491-4082,토:11:00 - 17:30 16:30 라스트오더/일:11:00 - 17:30 16:30 라스트오더/월:11:00 - 17:30 16:30 라스트오더/화:정기휴무 (매주 화요일)/수:11:00 - 17:30 16:30 라스트오더/목:11:00 - 17:30 16:30 라스트오더/금:11:00 - 17:30 16:30 라스트오더,0,33.3588467,126.2963134
1621426755,코너피자리아,피자,경기 수원시 팔달구 화서문로 34-1 2층,070-8865-1733,토:11:00 - 22:00/일:11:00 - 22:00/월:정보없음/화:11:00 - 22:00/수:11:00 - 22:00/목:11:00 - 22:00/금:11:00 - 22:00,0,37.2849661,127.011834
36859834,델문도,"카페,디저트",제주 제주시 조천읍 조함해안로 519-10,064-702-0007,토:07:00 - 새벽 00:00 23:30 라스트오더/일:07:00 - 새벽 00:00 23:30 라스트오더/월:07:00 - 새벽 00:00 23:30 라스트오더/화:07:00 - 새벽 00:00 23:30 라스트오더/수:07:00 - 새벽 00:00 23:30 라스트오더/목:07:00 - 새벽 00:00 23:30 라스트오더/금:07:00 - 새벽 00:00 23:30 라스트오더,0,33.5437098,126.6687041
20593600,연남살롱,카페,서울 마포구 성미산로 122-1,02-332-3471,토:14:00 - 21:00/일:14:00 - 21:00/월:정기휴무 (매주 월요일)/화:정기휴무 (매주 화요일)/수:14:00 - 21:00/목:14:00 - 21:00/금:14:00 - 21:00,0,37.5626492,126.9204959
1545498667,솔솥 대구범어점,한식,대구 수성구 동대구로77길 11 솔솥 대구범어점,053-755-0903,매일:11:30 - 21:00 15:00 - 17:00 브레이크타임,0,35.8646692,128.6258727
1453045799,카페부르르,"카페,디저트",경기 수원시 팔달구 정조로900번길 12 1층,,토:13:00 - 21:00 20:30 라스트오더/일:13:00 - 21:00 20:30 라스트오더/월:정기휴무 (매주 월요일)/화:13:00 - 21:00 20:30 라스트오더/수:13:00 - 21:00 20:30 라스트오더/목:13:00 - 21:00 20:30 라스트오더/금:13:00 - 21:00 20:30 라스트오더,0,37.2877927,127.0151829
20754091,홍림곱창,"곱창,막창,양",대구 남구 대명로36길 58,0507-1316-5903,매일:11:00 - 새벽 02:00,0,35.8370246,128.5745187
401694921,도야지면옥 본점,한식,부산 금정구 장전온천천로 39 도야지면옥,0507-1419-7751,토:11:30 - 20:50 15:20 - 16:30 브레이크타임 20:05 라스트오더/일:11:30 - 20:50 15:20 - 16:30 브레이크타임 20:05 라스트오더/월:11:30 - 20:50 15:20 - 16:30 브레이크타임 20:05 라스트오더/화:정기휴무 (매주 화요일)/수:11:30 - 20:50 15:20 - 16:30 브레이크타임 20:05 라스트오더/목:11:30 - 20:50 15:20 - 16:30 브레이크타임 20:05 라스트오더/금:11:30 - 20:50 15:20 - 16:30 브레이크타임 20:05 라스트오더,0,35.2285934,129.0888219
1414076813,소코아 홍대점,카레,서울 마포구 와우산로15길 49 1층 소코아 홍대점,070-8867-2510,매일:11:30 - 21:00 15:00 - 17:00 브레이크타임,0,37.548657,126.9209698
1512782517,돌담길,"카페,디저트",전남 장성군 장성읍 수산2길 12-5,0507-1331-7763,토:11:00 - 21:00/일:11:00 - 21:00/월:정기휴무 (매주 월요일)/화:11:00 - 19:00/수:11:00 - 19:00/목:11:00 - 19:00/금:11:00 - 19:00,0,35.3236648,126.8012256
686603615,이집트 경양식,돈가스,인천 중구 우현로67번길 13,070-8837-0079,매일:11:00 - 21:00 15:00 - 17:00 브레이크타임 20:00 라스트오더,0,37.4737988,126.6292633
36630699,닭갈비제작소 부평점,닭갈비,인천 부평구 부평문화로 75,0507-1419-0688,매일:11:00 - 22:00 21:00 라스트오더,0,37.4942965,126.7247175
1946267335,대낚식당,"곱창,막창,양",서울 강남구 역삼로 137 1층 대낚식당,0507-1316-5561,토:15:00 - 22:00 21:00 라스트오더/일:정기휴무 (매주 일요일)/월:11:30 - 22:00 15:00 - 17:30 브레이크타임 21:00 라스트오더/화:11:30 - 22:00 15:00 - 17:30 브레이크타임 21:00 라스트오더/수:11:30 - 22:00 15:00 - 17:30 브레이크타임 21:00 라스트오더/목:11:30 - 22:00 15:00 - 17:30 브레이크타임 21:00 라스트오더/금:11:30 - 22:00 15:00 - 17:30 브레이크타임 21:00 라스트오더,0,37.4945551,127.0344875
37605062,동대문엽기떡볶이 대구상인점,분식,대구 달서구 월곡로 257,053-633-8593,토:10:30 - 22:30/일:10:30 - 22:30/월:10:30 - 22:30/화:10:30 - 22:30/수:10:30 - 22:30/목:10:30 - 22:30/금:10:30 - 22:30,0,35.8173617,128.5388164
35516141,제임스시카고피자 홍대본점,피자,서울 마포구 어울마당로 122-1 1층 제임스 시카고 피자 홍대본점,02-6489-3934,매일:12:00 - 22:00 21:30 라스트오더,0,37.5554369,126.923928
1241532707,성수다락,"스파게티,파스타전문",서울 성동구 뚝섬로9길 20 2층,0507-1349-9197,토:11:30 - 21:10/일:11:30 - 21:10/월:11:30 - 21:10 15:10 - 16:30 브레이크타임/화:11:30 - 21:10 15:10 - 16:30 브레이크타임/수:11:30 - 21:10 15:10 - 16:30 브레이크타임/목:11:30 - 21:10 15:10 - 16:30 브레이크타임/금:11:30 - 21:10 15:10 - 16:30 브레이크타임,0,37.5399249,127.0562377
1501495669,하이디라오 명동점,중식당,서울 중구 명동3길 36,0507-1426-3890,매일:10:00 - 23:00,0,37.5653492,126.9837511
1092567422,텅플래닛 성수,"카페,디저트",서울 성동구 성수이로 82 2층,02-498-1113,매일:10:00 - 21:00,0,37.5422643,127.0565549
21817793,Monster Pizza,피자,서울 마포구 와우산로 73,070-8778-0322,토:17:00 - 새벽 04:30/일:17:00 - 새벽 04:30/월:17:00 - 새벽 04:30/화:17:00 - 새벽 04:30/수:17:00 - 새벽 04:30/목:17:00 - 새벽 04:30/금:17:00 - 새벽 04:30,0,37.551024,126.9230121
1266391111,멘지,일본식라면,서울 마포구 월드컵로11길 8 103호,0507-1456-1985,"토:11:30 - 20:30 15:00 - 17:30 브레이크타임 14:30, 20:00 라스트오더/일:11:30 - 20:30 15:00 - 17:30 브레이크타임 14:30, 20:00 라스트오더/월:11:30 - 20:30 15:00 - 17:30 브레이크타임 14:30, 20:00 라스트오더/화:정기휴무 (매주 화요일)/수:11:30 - 20:30 15:00 - 17:30 브레이크타임 14:30, 20:00 라스트오더/목:11:30 - 20:30 15:00 - 17:30 브레이크타임 14:30, 20:00 라스트오더/금:11:30 - 20:30 15:00 - 17:30 브레이크타임 14:30, 20:00 라스트오더",0,37.5549359,126.9104122
32430539,블랙타코앤그릴,"멕시코,남미음식",대구 중구 공평로 31 건물 2층,053-426-2268,토:12:00 - 새벽 00:00 15:40 - 17:00 브레이크타임/일:12:00 - 22:00 15:40 - 17:00 브레이크타임/월:12:00 - 22:00 15:40 - 17:00 브레이크타임/화:12:00 - 22:00 15:40 - 17:00 브레이크타임/수:12:00 - 22:00 15:40 - 17:00 브레이크타임/목:12:00 - 22:00 15:40 - 17:00 브레이크타임/금:12:00 - 새벽 00:00 15:40 - 17:00 브레이크타임,0,35.8665986,128.5995148
36369077,토끼정 강남점,일식당,서울 강남구 봉은사로6길 32,070-4230-2233,,0,37.5029725,127.0273201
1758856449,클라우드캣,"맥주,호프",서울 마포구 마포대로14나길 6 클라우드캣,02-6014-0085,토:11:00 - 새벽 00:00/일:11:00 - 새벽 00:00/월:11:00 - 새벽 00:00/화:11:00 - 새벽 00:00/수:11:00 - 새벽 00:00/목:11:00 - 새벽 00:00/금:11:00 - 새벽 00:00,0,37.5478368,126.9551135
1292304113,온달집 홍대직영점,"육류,고기요리",서울 마포구 잔다리로 9 1층,02-332-4936,토:17:00 - 새벽 06:00/일:17:00 - 새벽 06:00/월:17:00 - 새벽 06:00/화:17:00 - 새벽 06:00/수:17:00 - 새벽 06:00/목:17:00 - 새벽 06:00/금:17:00 - 새벽 06:00,0,37.5505661,126.9219728
1161055545,Cafe flow,"카페,디저트",서울 마포구 연남로3길 40,0507-1321-3737,토:11:00 - 21:00/일:11:00 - 21:00/월:정기휴무 (매주 월요일)/화:11:00 - 21:00/수:11:00 - 21:00/목:11:00 - 21:00/금:11:00 - 21:00,0,37.5606213,126.9205737
1149305255,땡스오트 안국,"카페,디저트",서울 종로구 북촌로 21-10,0507-1392-0891,매일:11:00 - 20:00,0,37.5787854,126.9845986
1851241547,당옥,"카페,디저트",서울 강남구 강남대로162길 22 1층,0507-1379-1276,토:11:30 - 21:00/일:11:30 - 21:00/월:정기휴무 (매주 월요일)/화:12:00 - 18:00/수:11:30 - 21:00/목:11:30 - 21:00/금:11:30 - 21:00,0,37.5201006,127.0204676
1242739264,호랑이젤라떡,아이스크림,"부산 해운대구 달맞이길62번길 38 115호, 116호",0507-1302-4130,토:11:00 - 22:00 17:00 - 18:10 브레이크타임 21:30 라스트오더/일:11:00 - 22:00 17:00 - 18:10 브레이크타임 21:30 라스트오더/월:11:00 - 22:00 17:00 - 18:10 브레이크타임 21:30 라스트오더/화:정기휴무 (매주 화요일)/수:11:00 - 22:00 17:00 - 18:10 브레이크타임 21:30 라스트오더/목:11:00 - 22:00 17:00 - 18:10 브레이크타임 21:30 라스트오더/금:11:00 - 22:00 17:00 - 18:10 브레이크타임 21:30 라스트오더,0,35.1584901,129.1711988
1285186695,트리오드,"카페,디저트",서울 강남구 강남대로94길 28 유니언타운 L층,02-568-9427,매일:11:00 - 22:00 21:00 라스트오더,0,37.4996515,127.0296218
1204555339,코지하우스,양식,부산 해운대구 우동1로 37 1층,0507-1393-6684,토:11:30 - 21:00 15:30 - 17:00 브레이크타임 20:15 라스트오더/일:11:30 - 21:00 15:30 - 17:00 브레이크타임 20:15 라스트오더/월:11:30 - 21:00 15:30 - 17:00 브레이크타임 20:15 라스트오더/화:11:30 - 21:00 15:30 - 17:00 브레이크타임 20:15 라스트오더/수:11:30 - 21:00 15:30 - 17:00 브레이크타임 20:15 라스트오더/목:11:30 - 21:00 15:30 - 17:00 브레이크타임 20:15 라스트오더/금:11:30 - 21:00 15:30 - 17:00 브레이크타임 20:15 라스트오더,0,35.1646947,129.1569286
1401001726,광야,이탈리아음식,서울 마포구 월드컵북로4길 82 1층 광야,0507-1318-1486,매일:11:30 - 22:00 14:50 - 17:00 브레이크타임 21:00 라스트오더,0,37.5593406,126.9231201
19866326,피오니,케이크전문,서울 마포구 독막로7길 51,02-333-5325,토:12:00 - 22:00 21:00 라스트오더/일:12:00 - 22:00 21:00 라스트오더/월:12:00 - 22:00 21:00 라스트오더/화:12:00 - 22:00 21:00 라스트오더/수:12:00 - 22:00 21:00 라스트오더/목:12:00 - 22:00 21:00 라스트오더/금:12:00 - 22:00 21:00 라스트오더,0,37.5500912,126.9197782
1818853219,페블스,카페,서울 마포구 연남로3길 23,,토:12:00 - 20:00/일:12:00 - 20:00/월:12:00 - 20:00/화:12:00 - 20:00/수:정기휴무 (매주 수요일)/목:12:00 - 20:00/금:12:00 - 20:00,0,37.5608991,126.9213678
1117191113,족황상제 압구정로데오점,족황상제,서울 강남구 도산대로51길 40,02-516-1982,토:16:00 - 23:30/일:16:00 - 23:30/월:17:00 - 23:30/화:17:00 - 23:30/수:17:00 - 23:30/목:17:00 - 23:30/금:16:00 - 23:30,0,37.5256875,127.0382779
37452342,모던테이블,"카페,디저트",부산 부산진구 중앙대로680번길 45-9 3층 모던테이블,0507-1351-0302,매일:12:00 - 23:00 22:00 라스트오더,0,35.1538913,129.0616127
37288977,옐로우보울,이탈리아음식,서울 서대문구 충정로 7 구세군빌딩 지상에서 보이는 지하1층(세븐일레븐 바로 옆,0507-1407-4961,토:12:00 - 21:00 15:30 - 17:00 브레이크타임 14:45 라스트오더/일:정기휴무 (매주 일요일)/월:11:30 - 22:00 15:00 - 17:30 브레이크타임 14:15 라스트오더/화:11:30 - 22:00 15:00 - 17:30 브레이크타임 14:15 라스트오더/수:11:30 - 22:00 15:00 - 17:30 브레이크타임 14:15 라스트오더/목:11:30 - 22:00 15:00 - 17:30 브레이크타임 14:15 라스트오더/금:11:30 - 22:00 15:00 - 17:30 브레이크타임 14:15 라스트오더,0,37.5601211,126.9622691
552724285,LAB41,"스파게티,파스타전문",서울 광진구 능동로 300 2층,0507-1425-0704,토:11:00 - 22:00 21:15 라스트오더/일:11:00 - 22:00 21:15 라스트오더/월:11:00 - 22:00 15:00 - 17:30 브레이크타임 21:15 라스트오더/화:11:00 - 22:00 15:00 - 17:30 브레이크타임 21:15 라스트오더/수:11:00 - 22:00 15:00 - 17:30 브레이크타임 21:15 라스트오더/목:11:00 - 22:00 15:00 - 17:30 브레이크타임 21:15 라스트오더/금:11:00 - 22:00 15:00 - 17:30 브레이크타임 21:15 라스트오더,0,37.5564597,127.0794582
1237252993,잭슨피자 수성못점,피자,대구 수성구 수성못6길 18 101호,053-765-0717,매일:11:00 - 22:00 21:30 라스트오더,0,35.8271993,128.6236462
1552526936,윤회매 문화관,"카페,디저트",광주 남구 서서평길 21-2,062-375-3397,매일:11:30 - 22:00,0,35.1410012,126.9151667
1830906681,영원아카이브,"카페,디저트",대구 중구 국채보상로 631 2층 은색 입간판,010-2238-6610,토:12:00 - 21:00/일:12:00 - 21:00/월:13:00 - 21:00/화:13:00 - 21:00/수:13:00 - 21:00/목:13:00 - 21:00/금:13:00 - 21:00,0,35.8703118,128.599816
1374328442,톤쇼우,돈가스,부산 수영구 광안해변로279번길 13,051-752-7978,매일:11:30 - 21:00 20:00 라스트오더,0,35.15644,129.1247812
1100429345,탐스피자,피자,서울 마포구 신촌로2안길 35 1층,02-6014-7400,토:12:00 - 22:00 21:00 라스트오더/일:정기휴무 (매주 일요일)/월:정기휴무 (매주 월요일)/화:17:00 - 22:00 21:00 라스트오더/수:17:00 - 22:00 21:00 라스트오더/목:17:00 - 22:00 21:00 라스트오더/금:17:00 - 22:00 21:00 라스트오더,0,37.5570448,126.9290556
13154695,최가네버섯샤브매운탕칼국수,샤브샤브,서울 강남구 도산대로51길 36,02-547-7676,토:11:00 - 22:00 15:00 - 17:00 브레이크타임/일:11:00 - 22:00 15:00 - 17:00 브레이크타임/월:11:00 - 22:00 15:00 - 17:00 브레이크타임/화:11:00 - 22:00 15:00 - 17:00 브레이크타임/수:11:00 - 22:00 15:00 - 17:00 브레이크타임/목:11:00 - 22:00 15:00 - 17:00 브레이크타임/금:11:00 - 22:00 15:00 - 17:00 브레이크타임,0,37.5254702,127.0382213
1514939124,부쉬윅,바(BAR),서울 강남구 선릉로153길 34 지하 1층,010-8482-8432,토:19:00 - 23:00/일:19:00 - 23:00/월:정기휴무 (매주 월요일)/화:정기휴무 (매주 화요일)/수:19:00 - 23:00/목:19:00 - 23:00/금:19:00 - 23:00,0,37.5248056,127.0366478
1469875009,비파티세리 공덕점,베이커리,서울 마포구 마포대로14길 4 1층,02-702-1220,매일:10:00 - 22:00,0,37.5485694,126.9551682
1345745893,해피베어데이,"카페,디저트",서울 마포구 양화로12길 16-6 1층,010-3915-8803,매일:11:30 - 23:00,0,37.5516905,126.9181793
1203466373,홍곱창 합정점,"곱창,막창,양",서울 마포구 양화로6길 103 1층 홍곱창 합정점,0507-1434-0983,토:15:00 - 새벽 00:00 23:30 라스트오더/일:17:00 - 새벽 00:00 23:30 라스트오더/월:정기휴무 (매주 월요일)/화:17:00 - 새벽 00:00 23:30 라스트오더/수:17:00 - 새벽 00:00 23:30 라스트오더/목:17:00 - 새벽 00:00 23:30 라스트오더/금:17:00 - 새벽 00:00 23:30 라스트오더,0,37.5484339,126.9199052
364996702,비스트로주라,"스파게티,파스타전문",서울 마포구 와우산로23길 18-7 1층 비스트로주라,02-6406-5640,토:11:30 - 21:00 15:00 - 17:00 브레이크타임/일:11:30 - 21:00 15:00 - 17:00 브레이크타임/월:정기휴무 (매주 월요일)/화:11:30 - 21:00 15:00 - 17:00 브레이크타임/수:11:30 - 21:00 15:00 - 17:00 브레이크타임/목:11:30 - 21:00 15:00 - 17:00 브레이크타임/금:11:30 - 21:00 15:00 - 17:00 브레이크타임,0,37.5539978,126.9246008
18959401,한국전력공사 평택지사,"공사,공단",경기 평택시 중앙로 219,,,0,36.9910583,127.1073639
1823032189,훠궈나라 홍대점,중식당,서울 마포구 어울마당로 133 1층 훠궈나라,0507-1339-1592,토:11:00 - 새벽 00:00/일:11:00 - 새벽 00:00/월:11:00 - 새벽 00:00/화:11:00 - 새벽 00:00/수:11:00 - 새벽 00:00/목:11:00 - 새벽 00:00/금:11:00 - 새벽 00:00,0,37.5562566,126.9246488
35831862,한국집 롯데월드몰점,비빔밥,서울 송파구 올림픽로 300 롯데월드몰 5F,02-3213-4547,매일:10:30 - 새벽 00:00,0,37.5125702,127.1025625
1738821617,소디스커피 대구북구직영점,카페,대구 북구 동천로 135-5 2층,0507-1379-9486,매일:11:00 - 22:00,0,35.9434736,128.5603723
13149909,유노추보,일식당,서울 강남구 압구정로10길 36,02-545-2811,매일:11:30 - 21:50,0,37.5212453,127.0219803
1469409668,에그베리11 범어직영점,오므라이스,대구 수성구 달구벌대로496길 5,0507-1357-1607,매일:11:30 - 21:30 15:30 - 17:00 브레이크타임 20:45 라스트오더,0,35.8580817,128.6342075
35928391,우니카트,베이커리,대구 수성구 범어천로 151-4,053-267-0522,토:08:30 - 21:30 21:00 라스트오더/일:정기휴무 (매주 일요일)/월(3/28):휴무/화:08:30 - 21:30 21:00 라스트오더/수:08:30 - 21:30 21:00 라스트오더/목:08:30 - 21:30 21:00 라스트오더/금:08:30 - 21:30 21:00 라스트오더,0,35.8604831,128.6219674
1240838953,RDBK 가로수,"카페,디저트",서울 강남구 가로수길 62 3층,0507-1410-5654,토:12:00 - 21:00/일:12:00 - 21:00/월:11:00 - 19:00/화:11:00 - 19:00/수:11:00 - 19:00/목:11:00 - 19:00/금:11:00 - 19:00,0,37.5221302,127.0229611
1703355146,해쉬,"스파게티,파스타전문",대구 중구 동성로 8-7 해쉬Hash,0507-1322-5853,매일:11:30 - 22:00 21:30 라스트오더,0,35.8675418,128.5947686
1114983459,먼치,양식,서울 용산구 한강대로38가길 7-26,0507-1336-5387,토:11:30 - 22:00 15:00 - 17:30 브레이크타임 14:15 라스트오더/일:11:30 - 22:00 15:00 - 17:30 브레이크타임 14:15 라스트오더/월:11:30 - 22:00 15:00 - 17:30 브레이크타임 14:15 라스트오더/화:정기휴무 (매주 화요일)/수:11:30 - 22:00 15:00 - 17:30 브레이크타임 14:15 라스트오더/목:11:30 - 22:00 15:00 - 17:30 브레이크타임 14:15 라스트오더/금:11:30 - 22:00 15:00 - 17:30 브레이크타임 14:15 라스트오더,0,37.5299291,126.9699043
859857359,옥동식,국밥,서울 마포구 양화로7길 44-10,010-5571-9915,토:11:00 - 21:00 20:30 라스트오더/일:11:00 - 21:00 20:30 라스트오더/월:11:00 - 22:00 15:00 - 17:00 브레이크타임 21:30 라스트오더/화:11:00 - 22:00 15:00 - 17:00 브레이크타임 21:30 라스트오더/수:11:00 - 22:00 15:00 - 17:00 브레이크타임 21:30 라스트오더/목:11:00 - 22:00 15:00 - 17:00 브레이크타임 21:30 라스트오더/금:11:00 - 22:00 15:00 - 17:00 브레이크타임 21:30 라스트오더,0,37.5526652,126.9145171
531898479,중국전통요리링링,중식당,서울 강남구 도산대로 521,02-511-6862,토:12:00 - 22:00/일:12:00 - 22:00/월:11:00 - 23:00 16:00 - 17:30 브레이크타임/화:11:00 - 23:00 16:00 - 17:30 브레이크타임/수:11:00 - 23:00 16:00 - 17:30 브레이크타임/목:11:00 - 23:00 16:00 - 17:30 브레이크타임/금:11:00 - 23:00 16:00 - 17:30 브레이크타임,0,37.5248741,127.0504024
1496912473,그믐족발 본점,"족발,보쌈",서울 영등포구 경인로79길 21 1층,0507-1350-6453,토:16:00 - 22:30 22:00 라스트오더/일:16:00 - 22:30 22:00 라스트오더/월:정기휴무 (매주 월요일)/화:16:00 - 22:30 22:00 라스트오더/수:16:00 - 22:30 22:00 라스트오더/목:16:00 - 22:30 22:00 라스트오더/금:16:00 - 22:30 22:00 라스트오더,0,37.5135241,126.8930839
1073326339,카페비슬,카페,대구 달성군 유가읍 음동길 201 카페비슬,0507-1323-0696,매일:10:00 - 22:00 21:30 라스트오더,0,35.7025222,128.4939497
37400507,제주여행 가야밀면,한식,제주 제주시 원노형9길 14 정연빌딩 1층,064-745-3400,매일:09:00 - 21:00 20:30 라스트오더,0,33.4880224,126.4848821
37357478,알로하돈부리,덮밥,대구 중구 동성로6길 58,0507-1421-6482,토:11:30 - 21:00 15:30 - 16:00 브레이크타임 20:30 라스트오더/일:11:30 - 21:00 15:30 - 16:00 브레이크타임 20:30 라스트오더/월:12:00 - 21:00 15:30 - 16:00 브레이크타임 20:30 라스트오더/화:정기휴무 (매주 화요일)/수:12:00 - 21:00 15:30 - 16:00 브레이크타임 20:30 라스트오더/목:12:00 - 21:00 15:30 - 16:00 브레이크타임 20:30 라스트오더/금:12:00 - 21:00 15:30 - 16:00 브레이크타임 20:30 라스트오더,0,35.8683999,128.5984717
34646674,스시준,일식당,대구 중구 남성로 40-1,053-219-1916,매일:11:30 - 20:30 15:00 - 17:00 브레이크타임,0,35.8672729,128.5910857
1607855573,소바카게,일식당,경북 경주시 첨성로99번길 25-5 소바카게,0507-1327-6332,"매일:11:00 - 21:00 16:00 - 17:00 브레이크타임 15:00, 20:00 라스트오더",0,35.8353942,129.2118046
1517744919,설월,"카페,디저트",경북 경주시 첨성로81번길 22-13 설월,0507-1492-6031,토:11:00 - 21:00 20:50 라스트오더/일:11:00 - 21:00 20:50 라스트오더/월:11:00 - 21:00 20:50 라스트오더/화:정기휴무 (매주 화요일)/수:11:00 - 21:00 20:50 라스트오더/목:11:00 - 21:00 20:50 라스트오더/금:11:00 - 21:00 20:50 라스트오더,0,35.8350781,129.2125425
16279905,도산분식,종합분식,대전 서구 도솔로 465,042-523-1380,,0,36.3434969,127.3957659
1041155881,카츠오우 공덕점,돈가스,서울 마포구 마포대로10길 11 1층,070-7543-8481,토:11:00 - 20:30 15:00 - 17:00 브레이크타임 20:00 라스트오더/일:정기휴무 (매주 일요일)/월:11:00 - 21:00 15:00 - 17:00 브레이크타임 20:30 라스트오더/화:11:00 - 21:00 15:00 - 17:00 브레이크타임 20:30 라스트오더/수:11:00 - 21:00 15:00 - 17:00 브레이크타임 20:30 라스트오더/목:11:00 - 21:00 15:00 - 17:00 브레이크타임 20:30 라스트오더/금:11:00 - 21:00 15:00 - 17:00 브레이크타임 20:30 라스트오더,0,37.5472931,126.9543666
1071356852,카페클로이인패리스,"카페,디저트",서울 마포구 성미산로 190-3 1층,0507-1346-6626,토:13:30 - 22:00 21:15 라스트오더/일:13:30 - 22:00 21:15 라스트오더/월:13:30 - 22:00 21:15 라스트오더/화:13:30 - 22:00 21:15 라스트오더/수:13:30 - 22:00 21:15 라스트오더/목:13:30 - 22:00 21:15 라스트오더/금:13:30 - 22:00 21:15 라스트오더,0,37.5627254,126.9261857
1657160370,단골손님,요리주점,대구 중구 공평로 34 1층,053-431-1110,토:11:00 - 새벽 02:00/일:11:00 - 새벽 02:00/월:11:00 - 새벽 02:00/화:16:00 - 새벽 02:00/수:11:00 - 새벽 02:00/목:11:00 - 새벽 02:00/금:11:00 - 새벽 02:00,0,35.8670391,128.6001228
1259777672,로위버거,햄버거,부산 부산진구 서전로10번길 31-4 1층,070-4467-4090,토:11:30 - 20:30/일:11:30 - 20:30/월:11:30 - 20:30 15:00 - 16:00 브레이크타임/화:11:30 - 20:30 15:00 - 16:00 브레이크타임/수:11:30 - 20:30 15:00 - 16:00 브레이크타임/목:11:30 - 20:30 15:00 - 16:00 브레이크타임/금:11:30 - 20:30 15:00 - 16:00 브레이크타임,0,35.1563511,129.0600485
1966521856,라프레플루트,"카페,디저트",서울 성동구 왕십리로16가길 10-30,0507-1383-7415,,0,37.5506197,127.0453382
1544769286,미스터라멘 공덕점,일본식라면,서울 마포구 마포대로8길 19 2층 좌측호,0507-1326-3295,매일:11:00 - 20:20 15:00 - 17:00 브레이크타임,0,37.5463472,126.9541864
625311806,감성타코 합정점,"멕시코,남미음식",서울 마포구 월드컵로3길 14 지하1층,02-332-8836,토:12:00 - 22:00 21:00 라스트오더/일:12:00 - 22:00 21:00 라스트오더/월:11:30 - 22:00 15:30 - 16:30 브레이크타임 21:00 라스트오더/화:11:30 - 22:00 15:30 - 16:30 브레이크타임 21:00 라스트오더/수:11:30 - 22:00 15:30 - 16:30 브레이크타임 21:00 라스트오더/목:11:30 - 22:00 15:30 - 16:30 브레이크타임 21:00 라스트오더/금:11:30 - 22:00 15:30 - 16:30 브레이크타임 21:00 라스트오더,0,37.5511438,126.91192
1558955485,더블링,양식,부산 부산진구 서전로46번길 26 1층 더블링,051-816-0085,토:11:00 - 21:00 15:00 - 17:00 브레이크타임 20:00 라스트오더/일:11:00 - 21:00 15:00 - 17:00 브레이크타임 20:00 라스트오더/월:11:00 - 21:00 15:00 - 17:00 브레이크타임 20:00 라스트오더/화:11:00 - 21:00 15:00 - 17:00 브레이크타임 20:00 라스트오더/수:11:00 - 21:00 15:00 - 17:00 브레이크타임 20:00 라스트오더/목:11:00 - 21:00 15:00 - 17:00 브레이크타임 20:00 라스트오더/금:11:00 - 21:00 15:00 - 17:00 브레이크타임 20:00 라스트오더,0,35.1566137,129.0647262
1017478967,빠레뜨한남 대구 동성로점,양식,"대구 중구 동성로2길 58 2층, 빠레뜨한남",053-253-5113,토:11:30 - 21:00/일:11:30 - 21:00/월:11:30 - 21:00 15:30 - 17:00 브레이크타임/화:11:30 - 21:00 15:30 - 17:00 브레이크타임/수:11:30 - 21:00 15:30 - 17:00 브레이크타임/목:11:30 - 21:00 15:30 - 17:00 브레이크타임/금:11:30 - 21:00 15:30 - 17:00 브레이크타임,0,35.8685102,128.5969898
36140395,맥도날드 대구상인DT점,햄버거,대구 달서구 월곡로 338,070-7209-0571,매일:00:00 - 새벽 00:00,0,35.8229038,128.5334055
1427134948,미도인 강남,일식당,서울 강남구 강남대로102길 16 지상 2층,02-555-1995,토:11:20 - 21:00/일:11:20 - 21:00/월:11:20 - 21:00 15:00 - 17:00 브레이크타임 14:45 라스트오더/화:11:20 - 21:00 15:00 - 17:00 브레이크타임 14:45 라스트오더/수:11:20 - 21:00 15:00 - 17:00 브레이크타임 14:45 라스트오더/목:11:20 - 21:00 15:00 - 17:00 브레이크타임 14:45 라스트오더/금:11:20 - 21:00 15:00 - 17:00 브레이크타임 14:45 라스트오더,0,37.5020885,127.0272009
1240372795,서울앵무새,"카페,디저트",서울 성동구 서울숲9길 3 B1~2F,0507-1466-2049,매일:08:00 - 23:00,0,37.5483268,127.0435639
840528498,로니스도우,피자,대구 중구 국채보상로125길 15,0507-1413-7946,토:12:00 - 21:00/일:12:00 - 21:00/월:12:00 - 21:00 15:00 - 17:00 브레이크타임/화:12:00 - 21:00 15:00 - 17:00 브레이크타임/수:12:00 - 21:00 15:00 - 17:00 브레이크타임/목:12:00 - 21:00 15:00 - 17:00 브레이크타임/금:12:00 - 21:00 15:00 - 17:00 브레이크타임,0,35.8712004,128.5987735
974872496,매우매오 강남역본점,"육류,고기요리",서울 강남구 봉은사로4길 40 지하1층 1호,02-558-5788,매일:11:30 - 22:00 21:00 라스트오더,0,37.5023494,127.0269474
1920065620,칸다소바 경복궁점,일본식라면,서울 종로구 자하문로7길 5 1층,02-6405-1662,매일:11:30 - 21:00 15:30 - 17:00 브레이크타임 20:30 라스트오더,0,37.5781853,126.9712764
12795594,육회자매집,소고기구이,서울 종로구 종로 200-4,02-2272-3069,토:10:00 - 21:50 14:00 - 15:00 브레이크타임/일:정기휴무 (매주 일요일)/월:10:00 - 21:50 14:00 - 15:00 브레이크타임/화:10:00 - 21:50 14:00 - 15:00 브레이크타임/수:10:00 - 21:50 14:00 - 15:00 브레이크타임/목:10:00 - 21:50 14:00 - 15:00 브레이크타임/금:10:00 - 21:50 14:00 - 15:00 브레이크타임,0,37.5705713,126.9998936
1192855243,oooa,양식,대구 중구 중앙대로 376-20,010-5751-4561,토:11:30 - 21:00 20:00 라스트오더/일:11:30 - 21:00 20:00 라스트오더/월:11:30 - 21:00 20:00 라스트오더/화:11:30 - 21:00 20:00 라스트오더/수:11:30 - 21:00 20:00 라스트오더/목:11:30 - 21:00 20:00 라스트오더/금:11:30 - 21:00 20:00 라스트오더,0,35.866337,128.594559
1964251384,7930 손님식탁,양식,대전 중구 계룡로830번길 44,0507-1312-7930,"토:11:00 - 21:00 15:00 - 17:00 브레이크타임 14:00, 20:00 라스트오더/일:정기휴무 (매주 일요일)/월:11:00 - 21:00 15:00 - 17:00 브레이크타임 14:00, 20:00 라스트오더/화:11:00 - 21:00 15:00 - 17:00 브레이크타임 14:00, 20:00 라스트오더/수:11:00 - 21:00 15:00 - 17:00 브레이크타임 14:00, 20:00 라스트오더/목:11:00 - 21:00 15:00 - 17:00 브레이크타임 14:00, 20:00 라스트오더/금:11:00 - 21:00 15:00 - 17:00 브레이크타임 14:00, 20:00 라스트오더",0,36.3257644,127.4054347
13181730,바닷가에햇살한스푼,양식,경남 고성군 고성읍 신월로 157,0507-1404-6160,토:11:30 - 21:00 20:00 라스트오더/일:11:30 - 21:00 20:00 라스트오더/월:정기휴무 (매주 월요일)/화:정기휴무 (매주 화요일)/수:11:30 - 21:00 16:00 - 17:00 브레이크타임 20:00 라스트오더/목:11:30 - 21:00 16:00 - 17:00 브레이크타임 20:00 라스트오더/금:11:30 - 21:00 16:00 - 17:00 브레이크타임 20:00 라스트오더,0,34.9457839,128.333498
1808069977,마치마치,"카페,디저트",서울 강남구 도산대로11길 25,02-545-0503,매일:12:00 - 22:00,0,37.5191454,127.0223342
1544799426,피크니크 선유도점,베이커리,서울 영등포구 양평로22길 2-1,0507-1314-5784,토:10:00 - 22:00/일:10:00 - 22:00/월:10:00 - 22:00/화:10:00 - 22:00/수:10:00 - 22:00/목:10:00 - 22:00/금:10:00 - 22:00,0,37.5380091,126.8943787
771929956,바삭하게,돈가스,서울 영등포구 양평로19길 10 2층,0507-1413-6791,토:11:30 - 20:00/일:정기휴무 (매주 일요일)/월:11:00 - 21:00 15:00 - 17:30 브레이크타임/화:11:00 - 21:00 15:00 - 17:30 브레이크타임/수:11:00 - 21:00 15:00 - 17:30 브레이크타임/목:11:00 - 21:00 15:00 - 17:30 브레이크타임/금:11:00 - 21:00 15:00 - 17:30 브레이크타임,0,37.5365493,126.8945869
1584833634,고향카츠,돈가스,부산 수영구 수영로510번길 43 106호 107호,051-757-1202,토:11:30 - 20:30 14:30 - 17:30 브레이크타임 20:15 라스트오더/일:11:30 - 20:30 14:30 - 17:30 브레이크타임 20:15 라스트오더/월:정기휴무 (매주 월요일)/화:11:30 - 20:30 14:30 - 17:30 브레이크타임 20:15 라스트오더/수:11:30 - 20:30 14:30 - 17:30 브레이크타임 20:15 라스트오더/목:11:30 - 20:30 14:30 - 17:30 브레이크타임 20:15 라스트오더/금:11:30 - 20:30 14:30 - 17:30 브레이크타임 20:15 라스트오더,0,35.1508769,129.1139423
1917404910,디쉬업,"스파게티,파스타전문",대구 중구 달구벌대로 2125-7,053-423-1844,토:11:30 - 21:00 15:30 - 16:30 브레이크타임 20:30 라스트오더/일:11:30 - 21:00 15:30 - 16:30 브레이크타임 20:30 라스트오더/월:11:30 - 21:00 15:30 - 16:30 브레이크타임 20:30 라스트오더/화:11:30 - 21:00 15:30 - 16:30 브레이크타임 20:30 라스트오더/수:정기휴무 (매주 수요일)/목:11:30 - 21:00 15:30 - 16:30 브레이크타임 20:30 라스트오더/금:11:30 - 21:00 15:30 - 16:30 브레이크타임 20:30 라스트오더,0,35.8655732,128.595812
1062671523,벌툰 건대점,만화방,서울 광진구 아차산로 225 단산화빌딩 4층,0507-1425-6680,매일:10:00 - 23:00,0,37.5409361,127.0684847
1477901056,팬더스윗 건대점,브런치,"서울 광진구 동일로22길 117-17 1, 2층",02-498-9091,매일:11:00 - 23:00,0,37.5414444,127.0707849
1969198429,삼떡캠핑,떡볶이,서울 광진구 동일로22길 42 지하1층 삼떡캠핑,070-7608-9897,토:14:00 - 새벽 00:00/일:14:00 - 새벽 00:00/월:15:00 - 23:00/화:15:00 - 23:00/수:15:00 - 23:00/목:15:00 - 23:00/금:15:00 - 23:00,0,37.5418692,127.066459
449470468,유가츠,일식당,서울 성동구 서울숲4길 12-7 B1,02-499-4273,토:11:30 - 20:30 20:00 라스트오더/일:11:30 - 20:30 20:00 라스트오더/월:11:30 - 20:30 20:00 라스트오더/화:11:30 - 20:30 20:00 라스트오더/수:11:30 - 20:30 20:00 라스트오더/목:정기휴무 (매주 목요일)/금:11:30 - 20:30 20:00 라스트오더,0,37.5472709,127.0422342
1729882121,탕화쿵푸마라탕 명동점,중식당,서울 중구 명동4길 16-1 2층,0507-1306-1714,매일:11:00 - 21:00,0,37.5629097,126.9836481
1133826226,오레노라멘 인사점,일본식라면,서울 종로구 율곡로 49-4 1층,0507-1341-3539,토:11:30 - 20:30 15:00 - 17:00 브레이크타임 20:00 라스트오더/일:11:30 - 20:30 15:00 - 17:00 브레이크타임 20:00 라스트오더/월:11:30 - 20:30 15:00 - 17:00 브레이크타임 20:00 라스트오더/화:11:30 - 20:30 15:00 - 17:00 브레이크타임 20:00 라스트오더/수:11:30 - 20:30 15:00 - 17:00 브레이크타임 20:00 라스트오더/목:11:30 - 20:30 15:00 - 17:00 브레이크타임 20:00 라스트오더/금:11:30 - 20:30 15:00 - 17:00 브레이크타임 20:00 라스트오더,0,37.5765164,126.9845845
1495832061,트리안 건대점,베이커리,서울 광진구 아차산로29길 8 1층 104호,010-6615-0406,토:14:00 - 21:00/일:14:00 - 21:00/월:정기휴무 (매주 월요일)/화:14:00 - 21:00/수:14:00 - 21:00/목:14:00 - 21:00/금:14:00 - 21:00,0,37.5412467,127.0683351
1159737702,단골손님 대학로점,요리주점,서울 종로구 대학로12길 10 1층,0507-1340-5475,매일:15:00 - 새벽 04:00새벽 03:00 라스트오더,0,37.5825272,127.0026745
1959602723,젠젠 잠실점,"카페,디저트",서울 송파구 백제고분로45길 34 동방빌딩 2F,0507-1420-7240,매일:09:30 - 22:30 21:30 라스트오더,0,37.510703,127.1080344
1924641400,구스타,양식,전북 전주시 완산구 전주객사2길 77 1층 구스타,0507-1342-1130,매일:11:00 - 21:30,0,35.8201491,127.1395913
1894133486,석바위토스트,토스트,인천 미추홀구 경인로471번길 18,032-222-9334,매일:05:30 - 20:30,0,37.4596504,126.6917747
37659034,광합성카페,"카페,디저트",서울 마포구 월드컵로19길 8,02-333-6933,토:11:00 - 22:00/일:11:00 - 20:00/월:11:00 - 22:00/화:11:00 - 22:00/수:11:00 - 22:00/목:11:00 - 22:00/금:11:00 - 22:00,0,37.5571096,126.9084473
13155213,기절초풍물닭갈비자양점,닭갈비,서울 광진구 자양로13길 88-1 1층,0507-1492-9223,매일:11:00 - 22:00 15:00 - 17:00 브레이크타임 21:00 라스트오더,0,37.5329993,127.0801981
1081873068,썸띵어바웃커피,"카페,디저트","서울 강남구 강남대로102길 30 1, 2, 3층",0507-1332-6991,매일:11:00 - 23:00,0,37.5028451,127.0278381
1197303659,노모어피자,양식,서울 강남구 언주로164길 34-2 1층,02-6080-3417,토:12:00 - 22:00 16:00 - 17:00 브레이크타임 21:00 라스트오더/일:12:00 - 22:00 16:00 - 17:00 브레이크타임 21:00 라스트오더/월:정기휴무 (매주 월요일)/화:정기휴무 (매주 화요일)/수:12:00 - 22:00 15:30 - 17:00 브레이크타임 21:00 라스트오더/목:12:00 - 22:00 15:30 - 17:00 브레이크타임 21:00 라스트오더/금:12:00 - 22:00 15:30 - 17:00 브레이크타임 21:00 라스트오더,0,37.5252385,127.0361968
36823910,협재수우동 협재점,일식당,제주 제주시 한림읍 협재1길 11,064-796-5830,토:10:30 - 17:00/일:10:30 - 17:00/월:10:30 - 17:00/화:정기휴무 (매주 화요일)/수:10:30 - 17:00/목:10:30 - 17:00/금:10:30 - 17:00,0,33.3966182,126.2424618
1707942217,브뤼서리 서교,양식,서울 마포구 월드컵로12길 10 1층,02-322-0315,토:11:30 - 22:00/일:11:30 - 22:00/월:11:30 - 22:00 15:30 - 17:30 브레이크타임/화(3/29):휴무/수:11:30 - 22:00 15:30 - 17:30 브레이크타임/목:11:30 - 22:00 15:30 - 17:30 브레이크타임/금:11:30 - 22:00,0,37.555118,126.9117168
37534789,컬렉션라운지,바(BAR),서울 강남구 압구정로10길 33 B1,070-4229-0050,토:18:00 - 새벽 03:00/일:18:00 - 새벽 02:00/월:18:00 - 새벽 02:00/화:18:00 - 새벽 02:00/수:18:00 - 새벽 02:00/목:18:00 - 새벽 02:00/금:18:00 - 새벽 03:00,0,37.5214704,127.022211
1401894635,앳더스크,"카페,디저트",서울 동작구 사당로29가길 32 앳더스크,0507-1366-5841,토(3/26):11:30 - 21:00/일:11:00 - 21:00/월:11:00 - 21:00/화:11:00 - 21:00/수:11:00 - 21:00/목:11:00 - 21:00/금:11:00 - 21:00,0,37.4864101,126.9797093
1929310245,갓잇 올림픽공원점,"멕시코,남미음식",서울 강동구 성안로 14,0507-1387-9451,토:11:00 - 21:50 20:50 라스트오더/일:11:00 - 21:50 20:50 라스트오더/월:11:00 - 21:50 15:00 - 16:30 브레이크타임 20:50 라스트오더/화:11:00 - 21:50 15:00 - 16:30 브레이크타임 20:50 라스트오더/수:11:00 - 21:50 15:00 - 16:30 브레이크타임 20:50 라스트오더/목:11:00 - 21:50 15:00 - 16:30 브레이크타임 20:50 라스트오더/금:11:00 - 21:50 15:00 - 16:30 브레이크타임 20:50 라스트오더,0,37.5250443,127.1296693
1210614674,언네임드커피,카페,부산 부산진구 서전로58번길 99,0507-1329-0257,매일:12:00 - 22:00,0,35.1533409,129.0663509
1278628625,드므,와인,서울 중구 충무로5길 24,010-7931-2229,토:16:00 - 23:00/일:16:00 - 23:00/월:16:00 - 23:00/화:16:00 - 23:00/수:16:00 - 23:00/목:16:00 - 23:00/금:16:00 - 23:00,0,37.5654794,126.991494
1108389770,커피배우다,"카페,디저트",서울 도봉구 삼양로142길 7 1층 커피배우다,010-4643-5712,토:정기휴무 (매주 토요일)/일:12:00 - 18:00/월:08:00 - 18:00/화:08:00 - 18:00/수:08:00 - 18:00/목:08:00 - 18:00/금:08:00 - 18:00,0,37.6505939,127.0137783
973319799,노말키친,양식,서울 도봉구 도봉로114길 29,070-8860-3899,토:11:00 - 19:30 14:00 - 16:00 브레이크타임/일:11:00 - 19:30 14:00 - 16:00 브레이크타임/월:11:00 - 21:00 15:00 - 17:00 브레이크타임/화:11:00 - 21:00 15:00 - 17:00 브레이크타임/수:11:00 - 21:00 15:00 - 17:00 브레이크타임/목:11:00 - 21:00 15:00 - 17:00 브레이크타임/금:11:00 - 21:00 15:00 - 17:00 브레이크타임,0,37.6475553,127.0359395
1012102443,마라쿵젠,중식당,부산 중구 비프광장로 19-2 부은빌딩1층,0507-1434-8943,매일:11:00 - 22:00,0,35.098791,129.0274381
37322790,배떼기곱창 홍대점,"곱창,막창,양",서울 마포구 양화로18안길 26-6 1층 배떼기곱창,02-6082-0064,매일:15:00 - 새벽 00:30 23:30 라스트오더,0,37.5567522,126.9260275
1367591955,길언니,"백반,가정식",전남 여수시 이순신광장로 189,0507-1466-5758,토:11:00 - 17:00 16:30 라스트오더/일:11:00 - 17:00 16:30 라스트오더/월:11:00 - 17:00 16:30 라스트오더/화:11:00 - 17:00 16:30 라스트오더/수:11:00 - 17:00 16:30 라스트오더/목:정기휴무 (매주 목요일)/금:11:00 - 17:00 16:30 라스트오더,0,34.7383774,127.7438498
1913147400,섬광,"카페,디저트",서울 중구 창경궁로1길 38 5층,070-8866-8485,매일:12:00 - 새벽 00:00,0,37.5625174,126.9963437
35306735,오츠커피 마포점,"카페,디저트",서울 마포구 독막로14길 32 반지하 오츠커피,070-7806-5542,토:12:00 - 20:00 19:30 라스트오더/일:12:00 - 20:00 19:30 라스트오더/월:11:00 - 20:00 19:30 라스트오더/화:11:00 - 20:00 19:30 라스트오더/수:11:00 - 20:00 19:30 라스트오더/목:11:00 - 20:00 19:30 라스트오더/금:11:00 - 20:00 19:30 라스트오더,0,37.5473137,126.9226965
1090105095,연남제비,"육류,고기요리",서울 마포구 성미산로 186 1층 연남제비,02-6080-9808,토:14:00 - 23:50/일:14:00 - 23:50/월:16:00 - 23:50/화:16:00 - 23:50/수:16:00 - 23:50/목:16:00 - 23:50/금:16:00 - 23:50,0,37.5630751,126.9260068
1184410740,하얀집3호점,포장마차,서울 중구 퇴계로 224 하얀집3호점,0507-1312-3614,토:17:00 - 새벽 05:00/일:17:00 - 새벽 05:00/월:17:00 - 새벽 05:00/화:17:00 - 새벽 05:00/수:17:00 - 새벽 05:00/목:17:00 - 새벽 05:00/금:17:00 - 새벽 05:00,0,37.5615793,126.9966879
205638081,동북양꼬치,양꼬치,경북 구미시 상사서로 97,070-4521-8853,,0,36.0913267,128.3551187
38733965,퀸즈파크 청담점,브런치,서울 강남구 압구정로60길 22,02-542-4073,토:10:00 - 22:00/일:10:00 - 22:00/월:11:00 - 22:00/화:11:00 - 22:00/수:11:00 - 22:00/목:11:00 - 22:00/금:11:00 - 22:00,0,37.5260176,127.0416395
19873296,비스트로 친친,이탈리아음식,서울 종로구 효자로13길 54,02-720-6143,토:11:30 - 22:00 15:00 - 17:30 브레이크타임 21:00 라스트오더/일:11:30 - 22:00 15:00 - 17:30 브레이크타임 21:00 라스트오더/월:11:30 - 22:00 15:00 - 17:30 브레이크타임 21:00 라스트오더/화:11:30 - 22:00 15:00 - 17:30 브레이크타임 21:00 라스트오더/수:11:30 - 22:00 15:00 - 17:30 브레이크타임 21:00 라스트오더/목:11:30 - 22:00 15:00 - 17:30 브레이크타임 21:00 라스트오더/금:11:30 - 22:00 15:00 - 17:30 브레이크타임 21:00 라스트오더,0,37.5821401,126.972779
1968041382,라헬의부엌 홍대점,"카페,디저트","서울 마포구 와우산로29길 47 1,2층",02-332-4325,토:11:30 - 22:00 21:00 라스트오더/일:11:30 - 21:00 20:00 라스트오더/월:11:30 - 21:00 20:00 라스트오더/화:11:30 - 21:00 20:00 라스트오더/수:11:30 - 21:00 20:00 라스트오더/목:11:30 - 21:00 20:00 라스트오더/금:11:30 - 22:00 21:00 라스트오더,0,37.5556488,126.9273619
514060343,라움,"스파게티,파스타전문",서울 광진구 뚝섬로23길 59,02-6084-0626,"토:11:30 - 21:00 15:00 - 17:00 브레이크타임 14:30, 20:30 라스트오더/일:11:30 - 21:00 15:00 - 17:00 브레이크타임 14:30, 20:30 라스트오더/월:11:30 - 21:00 15:00 - 17:00 브레이크타임 14:30, 20:30 라스트오더/화:11:30 - 21:00 15:00 - 17:00 브레이크타임 14:30, 20:30 라스트오더/수:정기휴무 (매주 수요일)/목:11:30 - 21:00 15:00 - 17:00 브레이크타임 14:30, 20:30 라스트오더/금:11:30 - 21:00 15:00 - 17:00 브레이크타임 14:30, 20:30 라스트오더",0,37.5374991,127.0666139
882130308,소바식당,"우동,소바",서울 마포구 동교로9길 28,02-6013-1552,매일:11:30 - 21:00 15:00 - 17:00 브레이크타임,0,37.5551375,126.9101488
1608727072,세컨디포레스트,"스파게티,파스타전문",경기 수원시 팔달구 화서문로46번길 12 1층,0507-1310-0729,"토:11:30 - 20:30 15:30 - 17:00 브레이크타임 14:30, 19:30 라스트오더/일:11:30 - 20:30 15:30 - 17:00 브레이크타임 14:30, 19:30 라스트오더/월:11:30 - 20:30 15:30 - 17:00 브레이크타임 14:30, 19:30 라스트오더/화:11:30 - 20:30 15:30 - 17:00 브레이크타임 14:30, 19:30 라스트오더/수:11:30 - 20:30 15:30 - 17:00 브레이크타임 14:30, 19:30 라스트오더/목:11:30 - 20:30 15:30 - 17:00 브레이크타임 14:30, 19:30 라스트오더/금:11:30 - 20:30 15:30 - 17:00 브레이크타임 14:30, 19:30 라스트오더",0,37.2847408,127.0129698
1085793463,솔솔,"카페,디저트",경기 수원시 팔달구 창룡대로 42 1층 솔솔,0507-1467-8441,토:10:30 - 20:00 19:50 라스트오더/일:10:30 - 20:00 19:50 라스트오더/월:08:00 - 20:00 19:50 라스트오더/화:정기휴무 (매주 화요일)/수:08:00 - 20:00 19:50 라스트오더/목:08:00 - 20:00 19:50 라스트오더/금:08:00 - 20:00 19:50 라스트오더,0,37.2825628,127.0210305
1479614081,카페 스퀘어드,"카페,디저트",경기 수원시 팔달구 신풍로 30 2층 & 루프탑,031-8031-6868,매일:12:00 - 21:00 20:30 라스트오더,0,37.2837145,127.0148545
1945452889,릴라이카페,"카페,디저트",부산 중구 광복로 32-2 2층,0507-1301-8218,토:12:00 - 22:00/일:12:00 - 22:00/월:12:00 - 22:00/화:12:00 - 22:00/수:12:00 - 22:00/목:12:00 - 22:00/금:12:00 - 22:00,0,35.0992049,129.0286186
1666263100,야스마루,일식당,부산 부산진구 서전로38번길 35-14,010-7144-7600,토:12:00 - 21:00 15:00 - 17:30 브레이크타임/일:정기휴무 (매주 일요일)/월:12:00 - 21:00 15:00 - 17:30 브레이크타임/화:12:00 - 21:00 15:00 - 17:30 브레이크타임/수:12:00 - 21:00 15:00 - 17:30 브레이크타임/목:12:00 - 21:00 15:00 - 17:30 브레이크타임/금:12:00 - 21:00 15:00 - 17:30 브레이크타임,0,35.156055,129.0643923
38510300,우사기,일식당,부산 중구 남포길 6,051-245-3264,토:11:00 - 22:30 21:30 라스트오더/일:11:00 - 22:30 21:30 라스트오더/월:11:00 - 22:30 21:30 라스트오더/화:11:00 - 22:30 21:30 라스트오더/수:11:00 - 22:30 21:30 라스트오더/목:11:00 - 22:30 21:30 라스트오더/금:11:00 - 22:30 21:30 라스트오더,0,35.0988585,129.0293496
1031567362,room606,브런치,경남 창원시 성산구 용지로239번길 12-1,0507-1321-3210,매일:11:00 - 21:30 20:30 라스트오더,0,35.2358739,128.6855248
1065410377,미포집,"해물,생선요리",부산 해운대구 달맞이길62번길 3,0507-1382-2205,매일:11:00 - 21:00 15:00 - 17:00 브레이크타임 20:00 라스트오더,0,35.1607608,129.171445
1209837360,초당고래로스팅카페,카페,강원 강릉시 초당원길 84,0507-1347-9880,토:11:00 - 21:00/일:11:00 - 21:00/월:11:00 - 21:00/화:정기휴무 (매주 화요일)/수:11:00 - 21:00/목:11:00 - 21:00/금:11:00 - 21:00,0,37.7885674,128.9134664
1906938349,오프트,"카페,디저트",경남 창원시 성산구 외동반림로248번길 7-1,0507-1490-3993,매일:10:00 - 22:00,0,35.238812,128.6804278
1272551533,단고당,"카페,디저트",서울 마포구 망원로10길 3 1층/2층,0507-1332-1985,매일:12:00 - 21:00,0,37.557577,126.9071043
311673403,녹아들다 녹카페,카페,부산 부산진구 서전로37번길 18,0507-1332-2528,토:12:00 - 23:00/일:12:00 - 23:00/월:13:00 - 22:30/화:13:00 - 22:30/수:13:00 - 22:30/목:13:00 - 22:30/금:13:00 - 22:30,0,35.1585717,129.0641216
37420979,더 키친750,이탈리아음식,서울 종로구 대학로8가길 80 2층,0507-1307-0554,매일:10:30 - 22:00 21:00 라스트오더,0,37.5824727,127.0032821
1016126841,더파이샵,"카페,디저트",서울 마포구 성미산로 163 1층,0507-1392-7065,토:11:00 - 22:00 21:00 라스트오더/일:11:00 - 22:00 21:00 라스트오더/월:11:00 - 22:00 21:00 라스트오더/화:11:00 - 22:00 21:00 라스트오더/수:11:00 - 22:00 21:00 라스트오더/목:11:00 - 22:00 21:00 라스트오더/금:11:00 - 22:00 21:00 라스트오더,0,37.5649025,126.9242773
1359630024,유망,"카페,디저트",인천 부평구 부평문화로79번길 18 2층,010-4247-8037,매일:13:00 - 22:00,0,37.4950317,126.7249627
1498186485,냉장고 합정점,돼지고기구이,서울 마포구 양화로6길 99-10 1층,02-334-1006,토:16:00 - 새벽 00:00/일:16:00 - 새벽 00:00/월:16:00 - 새벽 00:00/화:16:00 - 새벽 00:00/수:16:00 - 새벽 00:00/목:16:00 - 새벽 00:00/금:16:00 - 새벽 00:00,0,37.5486877,126.9201047
1716565091,해피치즈스마일 부평점,종합분식,인천 부평구 부평문화로80번길 8 2층,0507-1465-7110,매일:11:30 - 21:00,0,37.4938805,126.7250106
1919617275,밤샷,요리주점,서울 마포구 와우산로18길 30 1층 밤샷,0507-1348-9343,토:16:00 - 23:00/일:16:00 - 23:00/월:정기휴무 (매주 월요일)/화:17:00 - 23:00/수:17:00 - 23:00/목:17:00 - 23:00/금:17:00 - 23:00,0,37.5514643,126.9240806
37388586,뭐양 수성못점,양꼬치,대구 수성구 수성못2길 13,0507-1422-3822,매일:17:00 - 새벽 02:00,0,35.8254762,128.6227234
1837260530,설어정 울산성남점,양식,울산 중구 젊음의1거리 14 1층,052-248-7350,매일:11:30 - 21:30 14:40 - 17:00 브레이크타임 20:30 라스트오더,0,35.5533033,129.3194047
1355434470,페브,"카페,디저트",서울 마포구 동교로 262-11 2층 Feb,02-6951-3996,토:12:30 - 21:00/일:12:30 - 21:00/월:정기휴무 (매주 월요일)/화:정기휴무 (매주 화요일)/수:12:30 - 21:00/목:12:30 - 21:00/금:12:30 - 21:00,0,37.5627564,126.9257153
11722122,평안도만두집,한식,서울 종로구 새문안로3길 30 도렴구역 제18지구,02-723-6592,토:11:00 - 21:30/일:정기휴무 (매주 일요일)/월:11:00 - 21:30/화:11:00 - 21:30/수:11:00 - 21:30/목:11:00 - 21:30/금:11:00 - 21:30,0,37.5727373,126.9733705
1805562801,감탄성신,일식당,서울 강남구 강남대로106길 14 지상1층,02-555-1516,매일:11:00 - 21:30,0,37.5029254,127.026679
1917755940,레벨스,피자,부산 부산진구 서전로10번길 14 3층,0507-1367-2474,토:12:00 - 새벽 00:00/일:12:00 - 22:00/월:12:00 - 23:00/화:12:00 - 23:00/수:12:00 - 23:00/목:12:00 - 23:00/금:12:00 - 새벽 00:00,0,35.1571943,129.0605062
1250785872,코카모메 초량점,일식당,부산 동구 초량동 994-645,051-711-1755,"토:11:30 - 20:30 15:00 - 17:30 브레이크타임 14:30, 20:00 라스트오더/일:11:30 - 20:30 15:00 - 17:30 브레이크타임 14:30, 20:00 라스트오더/월:정기휴무 (매주 월요일)/화:11:30 - 20:30 15:00 - 17:30 브레이크타임 14:30, 20:00 라스트오더/수:11:30 - 20:30 15:00 - 17:30 브레이크타임 14:30, 20:00 라스트오더/목:11:30 - 20:30 15:00 - 17:30 브레이크타임 14:30, 20:00 라스트오더/금:11:30 - 20:30 15:00 - 17:30 브레이크타임 14:30, 20:00 라스트오더",0,35.1160847,129.0347014
1288247418,녹아,"카페,디저트","경북 경주시 포석로1068번길 21 1,2층 녹아",0507-1308-1422,매일:11:30 - 20:00,0,35.8360835,129.211783
1552404262,고영희식당,"백반,가정식",대구 중구 달구벌대로 2109-10,0507-1348-0808,토:11:30 - 20:00 15:00 - 16:20 브레이크타임 19:30 라스트오더/일:정기휴무 (매주 일요일)/월:11:30 - 20:00 15:00 - 16:00 브레이크타임 19:30 라스트오더/화:11:30 - 20:00 15:00 - 16:00 브레이크타임 19:30 라스트오더/수:11:30 - 20:00 15:00 - 16:00 브레이크타임 19:30 라스트오더/목:11:30 - 20:00 15:00 - 16:00 브레이크타임 19:30 라스트오더/금:11:30 - 20:00 15:00 - 16:00 브레이크타임 19:30 라스트오더,0,35.8658475,128.5945197
1074002248,구구당,퓨전음식,서울 강남구 강남대로102길 35 구구당,0507-1362-1979,매일:11:30 - 22:00,0,37.5032847,127.0278795
1326436574,케익다방 연남점,"카페,디저트",서울 마포구 동교로51안길 13 1층,0507-1460-0615,토:12:00 - 20:00/일:12:00 - 20:00/월:정기휴무 (매주 월요일)/화:12:00 - 20:00/수:12:00 - 20:00/목:12:00 - 20:00/금:12:00 - 20:00,0,37.5651581,126.9245684
1226977514,슈퍼룸방구,포장마차,서울 마포구 와우산로21길 31 2층,010-3078-3461,토:14:00 - 22:00/일:14:00 - 22:00/월:15:00 - 22:00/화:15:00 - 22:00/수:15:00 - 22:00/목:15:00 - 22:00/금:15:00 - 22:00,0,37.5522078,126.9221246
1466126776,에그베리11 수성못점,오므라이스,대구 수성구 용학로 115,0507-1323-9596,토:11:30 - 21:30 15:30 - 17:00 브레이크타임/일:11:30 - 21:30 15:30 - 17:00 브레이크타임/월:11:30 - 21:30 15:30 - 17:00 브레이크타임/화:11:30 - 21:30 15:30 - 17:00 브레이크타임/수:11:30 - 21:30 15:30 - 17:00 브레이크타임/목:11:30 - 21:30 15:30 - 17:00 브레이크타임/금:11:30 - 21:30 15:30 - 17:00 브레이크타임,0,35.8251013,128.622579
1957364765,운멜로,이탈리아음식,경기 수원시 팔달구 화서문로32번길 4 2층,031-256-0149,매일:11:30 - 21:30 15:00 - 16:30 브레이크타임 20:30 라스트오더,0,37.2847665,127.0114935
1709924447,롱블랙,카페,강원 강릉시 창해로362번길 12,033-653-6550,매일:09:00 - 22:00,0,37.7956205,128.9178462
1721356360,팜테이블 수성못점,베이커리,대구 수성구 용학로 115 2동,053-245-9111,매일:10:00 - 23:00 22:00 라스트오더,0,35.8251013,128.622579
1910633529,청수당공명,"카페,디저트",서울 마포구 성미산로 152 청수당공명,070-7791-7972,매일:11:00 - 22:00,0,37.5642246,126.9234339
1245824691,코시롱,돼지고기구이,제주 제주시 애월읍 애월해안로 656,0507-1360-5051,매일:16:00 - 22:00,0,33.4794503,126.3735244
1653280910,우와,일식당,서울 강남구 강남대로158길 17 1층,070-8833-7336,매일:12:00 - 22:00 14:30 - 17:00 브레이크타임,0,37.519159,127.0202696
38262843,잇텐고,일본식라면,서울 마포구 포은로 11,0507-1405-7715,토:11:30 - 21:30 14:30 - 17:00 브레이크타임 20:30 라스트오더/일:11:30 - 21:30 14:30 - 17:00 브레이크타임 20:30 라스트오더/월:11:30 - 21:30 14:30 - 17:00 브레이크타임 20:30 라스트오더/화:11:30 - 21:30 14:30 - 17:00 브레이크타임 20:30 라스트오더/수:11:30 - 21:30 14:30 - 17:00 브레이크타임 20:30 라스트오더/목:11:30 - 21:30 14:30 - 17:00 브레이크타임 20:30 라스트오더/금:11:30 - 21:30 14:30 - 17:00 브레이크타임 20:30 라스트오더,0,37.5492492,126.9092391
170899606,마쿠 마라탕,중식당,서울 성동구 마조로3길 6,02-2295-4567,매일:11:00 - 23:00 15:30 - 17:00 브레이크타임 22:00 라스트오더,0,37.5585965,127.0401724
1619895672,도리무란도,바(BAR),서울 마포구 토정로 132,0507-1438-2078,토:18:30 - 새벽 00:00 23:30 라스트오더/일:18:30 - 새벽 00:00 23:30 라스트오더/월:18:30 - 새벽 00:00 23:30 라스트오더/화:정기휴무 (매주 화요일)/수:18:30 - 새벽 00:00 23:30 라스트오더/목:18:30 - 새벽 00:00 23:30 라스트오더/금:18:30 - 새벽 00:00 23:30 라스트오더,0,37.5451807,126.9257817
1447869730,Hippy Rippy 히피리피,"카페,디저트",서울 마포구 월드컵로13길 79 Hippy Rippy,0507-1400-9393,토:12:00 - 21:00/일:12:00 - 21:00/월:12:00 - 21:00/화:14:00 - 21:00/수:12:00 - 21:00/목:12:00 - 21:00/금:12:00 - 21:00,0,37.5549104,126.9059413
18674935,영천두툼한숯불갈비 본점,"육류,고기요리",경기 화성시 병점로81번길 17,0507-1389-4421,토:10:30 - 새벽 00:00/일:10:30 - 새벽 00:00/월:11:00 - 새벽 00:00/화:11:00 - 새벽 00:00/수:11:00 - 새벽 00:00/목:11:00 - 새벽 00:00/금:11:00 - 새벽 00:00,0,37.2129492,127.0420919
1871796940,카페지예,"카페,디저트",부산 부산진구 서전로47번길 25 B 아동 205호,0507-1301-6013,토:12:30 - 22:00/일:12:30 - 21:00/월:정기휴무 (매주 월요일)/화:12:30 - 22:00/수:12:30 - 22:00/목:12:30 - 22:00/금:12:30 - 22:00,0,35.1589368,129.064543
1030413970,플디,"카페,디저트",서울 성동구 상원길 44 2층,0507-1321-6341,토:12:00 - 21:00/일:12:00 - 21:00/월:12:00 - 21:00/화:정기휴무 (매주 화요일)/수:12:00 - 21:00/목:12:00 - 21:00/금:12:00 - 21:00,0,37.5479467,127.0485285
38561949,어니언 성수,"카페,디저트",서울 성동구 아차산로9길 8 어니언,0507-1386-3238,토:10:00 - 22:00 21:30 라스트오더/일:10:00 - 22:00 21:30 라스트오더/월:08:00 - 22:00 21:30 라스트오더/화:08:00 - 22:00 21:30 라스트오더/수:08:00 - 22:00 21:30 라스트오더/목:08:00 - 22:00 21:30 라스트오더/금:08:00 - 22:00 21:30 라스트오더,0,37.5447481,127.0582071
1288498467,오월생,"카페,디저트",부산 부산진구 전포대로 206-2 2층,0507-1338-8515,매일:12:00 - 22:00,0,35.1550659,129.0656871
1299419313,용산마루,종합분식,서울 용산구 한강대로15길 19-28 1층,010-7531-4090,매일:11:30 - 21:00 15:00 - 17:00 브레이크타임 20:00 라스트오더,0,37.5254605,126.9626331
1308786581,HDD,피자,서울 성동구 성수이로7길 46,010-3153-2870,매일:12:00 - 22:00,0,37.5429833,127.0532287
13331683,카페첫만남,"카페,디저트",서울 종로구 대학로9길 12,02-766-2337,토:11:00 - 21:00 20:00 라스트오더/일:14:00 - 19:00 18:00 라스트오더/월:08:00 - 21:00 20:00 라스트오더/화:08:00 - 21:00 20:00 라스트오더/수:08:00 - 21:00 20:00 라스트오더/목:08:00 - 21:00 20:00 라스트오더/금:08:00 - 21:00 20:00 라스트오더,0,37.5818125,127.0011167
1549130148,쁘띠팔레,브런치,서울 강남구 선릉로135길 13,0507-1473-2550,토:10:00 - 22:00/일:정기휴무 (매주 일요일)/월:10:00 - 22:00/화:10:00 - 22:00/수:10:00 - 22:00/목:10:00 - 22:00/금:10:00 - 22:00,0,37.5184598,127.0395974
1498051400,심취,요리주점,부산 금정구 부산대학로38번길 14 1층 심취,0507-1495-1345,토:17:00 - 새벽 02:00/일:정기휴무 (매주 일요일)/월:17:00 - 새벽 01:30/화:17:00 - 새벽 01:30/수:17:00 - 새벽 01:30/목:17:00 - 새벽 01:30/금:17:00 - 새벽 02:00,0,35.2318816,129.087426
37749762,애월식당,돼지고기구이,서울 종로구 자하문로 48-1,0507-1401-8334,매일:11:30 - 23:00 15:00 - 17:00 브레이크타임,0,37.58034,126.9715019
178664560,울프소셜클럽,카페,서울 용산구 한남대로 158,02-158-1588,매일:12:00 - 21:00 20:30 라스트오더,0,37.5424358,127.0027386
38320797,불막열삼 센텀두산위브점,"곱창,막창,양",부산 해운대구 해운대로383번길 70,0507-1443-9282,토:정보없음/일:정보없음/월:정보없음/화:정기휴무 (매주 화요일)/수:정보없음/목:정보없음/금:정보없음,0,35.1720301,129.1398176
1226619821,게더링,브런치,광주 동구 동계천로 168,0507-1430-8994,토:11:00 - 21:00 15:00 - 17:00 브레이크타임/일:11:00 - 21:00 15:00 - 17:00 브레이크타임/월:정기휴무 (매주 월요일)/화:11:00 - 21:00 15:00 - 17:00 브레이크타임/수:11:00 - 21:00 15:00 - 17:00 브레이크타임/목:11:00 - 21:00 15:00 - 17:00 브레이크타임/금:11:00 - 21:00 15:00 - 17:00 브레이크타임,0,35.148934,126.9273362
1829697417,리틀넥 한남,양식,서울 용산구 한남대로27길 66 1층,0507-1340-9499,"토:11:00 - 21:00 20:30 라스트오더/일:11:00 - 21:00 20:30 라스트오더/월:11:00 - 21:00 15:00 - 17:00 브레이크타임 14:30, 20:30 라스트오더/화:11:00 - 21:00 15:00 - 17:00 브레이크타임 14:30, 20:30 라스트오더/수:11:00 - 21:00 15:00 - 17:00 브레이크타임 14:30, 20:30 라스트오더/목:11:00 - 21:00 15:00 - 17:00 브레이크타임 14:30, 20:30 라스트오더/금:11:00 - 21:00 20:30 라스트오더",0,37.5396025,127.0030129
1438690191,서관면옥 교대본점,냉면,서울 서초구 서초대로56길 11,0507-1403-9946,"매일:11:00 - 21:00 15:00 - 17:00 브레이크타임 14:30, 20:30 라스트오더",0,37.4939936,127.0172832
1670417542,호미스,이탈리아음식,경기 수원시 팔달구 신풍로 52 2층 201호,0507-1393-2279,토:12:00 - 21:00 15:30 - 17:00 브레이크타임/일:12:00 - 21:00 15:30 - 17:00 브레이크타임/월:정기휴무 (매주 월요일)/화:11:30 - 22:00 15:00 - 17:00 브레이크타임/수:11:30 - 22:00 15:00 - 17:00 브레이크타임/목:11:30 - 22:00 15:00 - 17:00 브레이크타임/금:11:30 - 22:00 15:00 - 17:00 브레이크타임,0,37.2857247,127.0141149
1927272223,키노이스,"카페,디저트",경기 수원시 팔달구 고화로9번길 1 1층,0507-1486-7022,토:12:00 - 22:00/일:12:00 - 22:00/월:11:00 - 22:00/화:11:00 - 22:00/수:11:00 - 22:00/목:11:00 - 22:00/금:11:00 - 22:00,0,37.2702568,127.0079304
1680022117,윤세영 선술,이자카야,서울 강남구 도산대로34길 38 1층,0507-1443-3381,토:17:00 - 새벽 00:00 23:15 라스트오더/일:정기휴무 (매주 일요일)/월:정기휴무 (매주 월요일)/화:17:00 - 새벽 00:00 23:15 라스트오더/수:17:00 - 새벽 00:00 23:15 라스트오더/목:17:00 - 새벽 00:00 23:15 라스트오더/금:17:00 - 새벽 00:00 23:15 라스트오더,0,37.517932,127.0315276
944642399,라라관,아시아음식,부산 부산진구 동천로 47-1,051-512-8878,매일:12:00 - 22:30 21:30 라스트오더,0,35.1530324,129.0619759
1228101335,칸다소바,일식당,서울 종로구 대학로 131-1,02-747-1662,"매일:11:30 - 21:30 15:30 - 17:00 브레이크타임 15:00, 21:00 라스트오더",0,37.5828916,127.0013845
1684807810,까사 부사노 해운대점,"카페,디저트",부산 해운대구 구남로 17-1 1층,0507-1321-6349,매일:08:30 - 새벽 03:00,0,35.1624783,129.1601626
193024519,해목,일식당,부산 해운대구 구남로24번길 8,051-746-3730,매일:11:00 - 22:00 15:00 - 17:00 브레이크타임 21:00 라스트오더,0,35.1618206,129.1596506
944106926,스펙터,"카페,디저트",서울 종로구 필운대로6길 23-1 스펙터,02-6101-6060,토:12:00 - 22:00/일:12:00 - 22:00/월:12:00 - 22:00/화:12:00 - 22:00/수:12:00 - 22:00/목:12:00 - 22:00/금:12:00 - 22:00,0,37.580272,126.9696796
1966485328,파스타부오노 성서계명대점,"스파게티,파스타전문",대구 달서구 계대동문로 15 2층,053-585-1277,매일:11:00 - 22:00 21:00 라스트오더,0,35.8558062,128.4939668
1770780416,노스트,"카페,디저트",경기 안산시 상록구 용신로 390,031-408-1856,매일:07:00 - 새벽 01:00,0,37.3013974,126.8655193
1442056092,메릴본케이크,"카페,디저트",충북 청주시 상당구 사직대로361번길 14-9 2층,0507-1369-5155,매일:12:00 - 22:00,0,36.6376833,127.4880467
35586686,쭌곱창,"곱창,막창,양",서울 마포구 와우산로29마길 6,0507-1308-2087,토:16:00 - 새벽 00:30/일:16:00 - 새벽 00:30/월:16:00 - 새벽 00:30/화:16:00 - 새벽 00:30/수:16:00 - 새벽 00:30/목:16:00 - 새벽 00:30/금:16:00 - 새벽 00:30,0,37.5558539,126.9267237
1859749227,소소하게,베이커리,서울 종로구 율곡로1길 40-59 카페소소하게,02-733-5554,토:11:00 - 20:00/일:11:00 - 19:00/월:정기휴무 (매주 월요일)/화:11:00 - 20:00/수:11:00 - 20:00/목:11:00 - 20:00/금:11:00 - 20:00,0,37.5781112,126.9813951
1600114192,부케,"스파게티,파스타전문",대구 중구 경상감영길 213 2F,0507-1465-9203,매일:11:30 - 21:00 15:40 - 17:00 브레이크타임,0,35.871809,128.5989525
1540304888,소금집델리 안국,양식,서울 종로구 북촌로4길 19 1층,0507-1317-2617,토:11:00 - 21:50 20:50 라스트오더/일:11:00 - 21:50 20:50 라스트오더/월:정기휴무 (매주 월요일)/화:11:00 - 21:50 20:50 라스트오더/수:11:00 - 21:50 20:50 라스트오더/목:11:00 - 21:50 20:50 라스트오더/금:11:00 - 21:50 20:50 라스트오더,0,37.5794473,126.9862452
1559094278,삼덕동 주식,요리주점,대구 중구 달구벌대로443길 39,0507-1332-5361,토:17:00 - 새벽 02:00/일:17:00 - 새벽 02:00/월:정기휴무 (매주 월요일)/화:17:00 - 새벽 02:00/수:17:00 - 새벽 02:00/목:17:00 - 새벽 02:00/금:17:00 - 새벽 02:00,0,35.864628,128.6053909
1905864689,트레스드,"카페,디저트",서울 송파구 백제고분로15길 50 1층,0507-1324-1844,매일:12:00 - 21:00 20:30 라스트오더,0,37.5097742,127.0847458
1169162417,이태리동,이탈리아음식,경기 수원시 팔달구 향교로 27-1 리오빌딩 지하1층,0507-1381-2117,토:11:30 - 21:30/일:11:30 - 21:30/월:11:30 - 21:30/화:11:30 - 21:30/수:11:30 - 21:30/목:11:30 - 21:30/금:11:30 - 21:30,0,37.2687082,127.0039332
1996983560,카페 엉플레,"카페,디저트",서울 강남구 도산대로33길 20 1층 카페 ENFFLE,0507-1385-0802,토:13:00 - 19:00 18:15 라스트오더/일:정기휴무 (매주 일요일)/월:09:30 - 20:00 19:15 라스트오더/화:09:30 - 20:00 19:15 라스트오더/수:09:30 - 20:00 19:15 라스트오더/목:09:30 - 20:00 19:15 라스트오더/금:09:30 - 20:00 19:15 라스트오더,0,37.5219477,127.0299166
1521995173,유니르,바(BAR),서울 마포구 동교로 256-10,010-9716-1234,매일:15:00 - 23:00,0,37.562437,126.9251831
30815324,코노미,일식당,서울 마포구 잔다리로6길 28,02-333-3036,토:01:00 - 22:20 21:50 라스트오더/일:01:00 - 22:20 21:50 라스트오더/월:16:00 - 22:20 21:50 라스트오더/화:16:00 - 22:20 21:50 라스트오더/수:16:00 - 22:20 21:50 라스트오더/목:16:00 - 22:20 21:50 라스트오더/금:16:00 - 22:20 21:50 라스트오더,0,37.5521812,126.9206291
1877661462,동양식당,찜닭,대구 수성구 청호로69길 79,053-745-1254,매일:11:00 - 22:00 15:00 - 17:00 브레이크타임,0,35.8500793,128.6357056
1094546593,베어스덴베이커리,베이커리,서울 마포구 양화로23길 10-9 1층 베어스덴베이커리,0507-1311-0204,토:10:00 - 21:00/일:10:00 - 21:00/월:정기휴무 (매주 월요일)/화:10:00 - 21:00/수:10:00 - 21:00/목:10:00 - 21:00/금:10:00 - 21:00,0,37.5593246,126.9256046
1595759279,산리오 러버스 클럽,카페,서울 마포구 와우산로19길 18 산리오 러버스 클럽,02-332-6110,토:12:00 - 21:00/일:12:00 - 21:00/월:12:00 - 21:00/화:12:00 - 21:00/수:12:00 - 21:00/목:12:00 - 21:00/금:12:00 - 21:00,0,37.5513649,126.9219906
18485191,강남돌곱창,"곱창,막창,양",서울 강남구 압구정로18길 17,02-548-7225,토:14:00 - 새벽 00:00/일:정기휴무 (매주 일요일)/월:14:00 - 새벽 00:00/화:14:00 - 새벽 00:00/수:14:00 - 새벽 00:00/목:14:00 - 새벽 00:00/금:14:00 - 새벽 00:00,0,37.5239146,127.0249317
1573951163,카츠바이콘반,일식당,서울 강남구 선릉로153길 36,0507-1332-3903,"토:11:30 - 20:30 15:30 - 17:30 브레이크타임 15:00, 20:00 라스트오더/일:11:30 - 20:30 15:30 - 17:30 브레이크타임 15:00, 20:00 라스트오더/월:11:30 - 20:30 20:00 라스트오더/화:11:30 - 20:30 15:00 - 17:30 브레이크타임 14:30, 20:00 라스트오더/수:11:30 - 20:30 15:00 - 17:30 브레이크타임 14:30, 20:00 라스트오더/목:11:30 - 20:30 15:00 - 17:30 브레이크타임 14:30, 20:00 라스트오더/금:11:30 - 20:30 15:00 - 17:30 브레이크타임 14:30, 20:00 라스트오더",0,37.5247998,127.0364575
1910645323,롱브르378,"카페,디저트",서울 송파구 오금로16길 4-15 반도빌딩1층,0507-1324-0378,토:10:00 - 21:00/일:10:00 - 21:00/월:10:00 - 21:00/화:정기휴무 (매주 화요일)/수:10:00 - 21:00/목:10:00 - 21:00/금:10:00 - 21:00,0,37.5112279,127.1083249
687355720,고수포차,포장마차,서울 마포구 독막로 76-1,0507-1438-3223,토:14:00 - 23:00/일:14:00 - 23:00/월:16:00 - 23:00/화:16:00 - 23:00/수:16:00 - 23:00/목:16:00 - 23:00/금:16:00 - 23:00,0,37.5475572,126.9219075
1201043555,베이커리 앤 커피 by 쿤달 압구정로데오 플래그쉽스토어,베이커리,서울 강남구 도산대로53길 39 1층,070-4647-0450,토:10:30 - 22:00/일:10:30 - 22:00/월:10:30 - 22:00/화:10:30 - 22:00/수:10:30 - 22:00/목:10:30 - 22:00/금:10:30 - 22:00,0,37.5258421,127.0389382
18796393,한강껍데기,돼지고기구이,서울 마포구 망원로 48-1,02-6083-3733,토:12:00 - 23:00/일:12:00 - 23:00/월:14:00 - 23:00/화:14:00 - 23:00/수:14:00 - 23:00/목:14:00 - 23:00/금:14:00 - 23:00,0,37.556684,126.9022819
1677950688,동경규동 대치점,덮밥,서울 강남구 남부순환로 2936,02-508-6995,매일:11:00 - 20:30,0,37.493385,127.0618767
1716710999,송리단취향,양식,서울 송파구 백제고분로45길 20 1층 102호 송리단취향,0507-1366-0526,매일:12:00 - 21:00,0,37.5099752,127.1095163
38549036,발리인망원,아시아음식,서울 마포구 포은로 67 1층,0507-1405-0527,토:11:30 - 21:00 20:00 라스트오더/일:정기휴무 (매주 일요일)/월:11:30 - 21:00 15:00 - 17:00 브레이크타임 20:00 라스트오더/화:11:30 - 21:00 15:00 - 17:00 브레이크타임 20:00 라스트오더/수:11:30 - 21:00 15:00 - 17:00 브레이크타임 20:00 라스트오더/목:11:30 - 21:00 15:00 - 17:00 브레이크타임 20:00 라스트오더/금:11:30 - 21:00 15:00 - 17:00 브레이크타임 20:00 라스트오더,0,37.5532805,126.9060383
1486194226,호미호식,일식당,"서울 강남구 봉은사로4길 36 운현빌딩 1층 2호, 호미호식",0507-1365-0422,매일:11:30 - 22:00,0,37.502481,127.0268652
1609583532,무쇠김치삼겹,한식,서울 마포구 와우산로21길 20-5 1층 무쇠김치삼겹,02-332-2290,매일:15:00 - 22:00,0,37.5526375,126.9226616
1114694312,심플책방,독립서점,대구 동구 동부로34길 4 지하 1층,0507-1334-9513,,0,35.8771053,128.6305893
37351613,쥰쇼쿠도,일식당,서울 송파구 백제고분로43길 8,010-2128-7356,토:정보없음/일:정기휴무 (매주 일요일)/월:11:30 - 21:00 14:30 - 16:30 브레이크타임/화:11:30 - 21:00 14:30 - 16:30 브레이크타임/수:11:30 - 21:00 14:30 - 16:30 브레이크타임/목:11:30 - 21:00 14:30 - 16:30 브레이크타임/금:11:30 - 21:00 14:30 - 16:30 브레이크타임,0,37.5082411,127.1097966
1986948799,동갑부부,"카페,디저트",부산 수영구 광남로 157 2층,0507-1342-0063,매일:12:00 - 21:00,0,35.155379,129.1180795
1064834738,7번방,포장마차,서울 마포구 어울마당로 62,0507-1496-3554,토:14:00 - 23:00/일:14:00 - 23:00/월:15:00 - 23:00/화:15:00 - 23:00/수:15:00 - 23:00/목:15:00 - 23:00/금:15:00 - 23:00,0,37.5506018,126.9214201
1416601875,앤디스커피 연남점,카페,서울 마포구 동교로 256-4,0507-1342-7884,매일:13:00 - 20:00,0,37.5625325,126.9249394
1815029035,쨈지달,바(BAR),서울 마포구 동교로38안길 23 지층,0507-1371-3457,토:16:00 - 23:00/일:16:00 - 23:00/월:17:00 - 23:00/화:정기휴무 (매주 화요일)/수:17:00 - 23:00/목:17:00 - 23:00/금:17:00 - 23:00,0,37.5621834,126.9254155
1821712976,워크인서울 WIS,갤러리카페,서울 마포구 토정로4길 18 1층 WIS studio,02-6408-0812,토:12:00 - 21:00/일:12:00 - 21:00/월:12:00 - 21:00/화:12:00 - 21:00/수:12:00 - 21:00/목:12:00 - 21:00/금:12:00 - 21:00,0,37.5448471,126.9148568
1047654730,듀코비다이너,"카페,디저트",부산 부산진구 전포대로199번길 9,051-512-6660,매일:11:00 - 22:00 21:30 라스트오더,0,35.1543376,129.0647113
1353180628,커피호스피탈,카페,서울 마포구 포은로 93,02-323-5500,토:12:00 - 22:00/일:12:00 - 22:00/월:14:00 - 21:00/화:14:00 - 21:00/수:14:00 - 21:00/목:14:00 - 21:00/금:14:00 - 21:00,0,37.5553079,126.9049511
1604413236,꼭그닭 잠실점,"치킨,닭강정",서울 송파구 오금로11길 14 2층,0507-1327-7777,토:14:00 - 새벽 02:00새벽 01:00 라스트오더/일:14:00 - 새벽 02:00새벽 01:00 라스트오더/월:14:00 - 새벽 02:00새벽 01:00 라스트오더/화:14:00 - 새벽 02:00새벽 01:00 라스트오더/수:14:00 - 새벽 02:00새벽 01:00 라스트오더/목:14:00 - 새벽 02:00새벽 01:00 라스트오더/금:14:00 - 새벽 02:00새벽 01:00 라스트오더,0,37.5144626,127.1089018
1662890332,물찬제비,"스파게티,파스타전문",부산 부산진구 전포대로209번길 20 2층,0507-1349-7304,토:11:30 - 21:30/일:11:30 - 21:30/월:11:30 - 21:30 15:30 - 17:00 브레이크타임/화:11:30 - 21:30 15:30 - 17:00 브레이크타임/수:11:30 - 21:30 15:30 - 17:00 브레이크타임/목:11:30 - 21:30 15:30 - 17:00 브레이크타임/금:11:30 - 21:30 15:30 - 17:00 브레이크타임,0,35.1554894,129.064125
1893379273,프레드릭베이커리,베이커리,서울 송파구 오금로 137,0507-1365-2114,매일:10:00 - 21:00,0,37.5113894,127.1104168
1303113077,타오마라탕,중식당,서울 마포구 양화로6길 19 광명빌딩 2층,0507-1318-5344,토:11:30 - 21:00/일:11:30 - 21:00/월:11:30 - 21:00/화:11:30 - 21:00/수:11:30 - 21:00/목:11:30 - 21:00/금:11:30 - 21:00,0,37.5492505,126.9152997
1378107996,마담에뽀끄,양식,부산 수영구 광안해변로 239 2층,0507-1402-5040,토:11:30 - 새벽 00:00 22:00 라스트오더/일:11:30 - 새벽 00:00 22:00 라스트오더/월:11:30 - 새벽 00:00 22:00 라스트오더/화:11:30 - 새벽 00:00 22:00 라스트오더/수:11:30 - 새벽 00:00 22:00 라스트오더/목:11:30 - 새벽 00:00 22:00 라스트오더/금:11:30 - 새벽 00:00 22:00 라스트오더,0,35.1547779,129.120108
1396888624,슈발츠발트,"카페,디저트",부산 수영구 민락본동로19번길 36-11,0507-1305-6535,토:12:00 - 21:00 20:30 라스트오더/일:12:00 - 21:00 20:30 라스트오더/월:12:00 - 21:00 20:30 라스트오더/화:12:00 - 21:00 20:30 라스트오더/수:12:00 - 21:00 20:30 라스트오더/목:정기휴무 (매주 목요일)/금:12:00 - 21:00 20:30 라스트오더,0,35.1584146,129.1266472
1100009233,한남베르그,"카페,디저트",서울 용산구 이태원로54길 58-26 1층 한남베르그,0507-1331-1750,매일:11:00 - 22:00,0,37.5357162,127.0005686
1813667950,포트레이트커피바,"카페,디저트",서울 마포구 포은로8길 32 1층,0507-1358-4693,매일:11:00 - 22:00,0,37.5565285,126.9065159
1636001415,다다랩,"카페,디저트",서울 마포구 월드컵로15길 17 다다랩,0507-1342-8305,토:12:00 - 23:00/일:12:00 - 23:00/월:정기휴무 (매주 월요일)/화:14:00 - 23:00/수:14:00 - 23:00/목:14:00 - 23:00/금:14:00 - 23:00,0,37.5561101,126.9087896
1726349203,남산호랭이,"스파게티,파스타전문",서울 마포구 잔다리로 25 1층,0507-1339-7034,토:11:30 - 22:00 21:00 라스트오더/일:11:30 - 22:00 21:00 라스트오더/월:11:30 - 22:00 15:00 - 17:30 브레이크타임 21:00 라스트오더/화:11:30 - 22:00 15:00 - 17:30 브레이크타임 21:00 라스트오더/수:11:30 - 22:00 15:00 - 17:30 브레이크타임 21:00 라스트오더/목:11:30 - 22:00 15:00 - 17:30 브레이크타임 21:00 라스트오더/금:11:30 - 22:00 15:00 - 17:30 브레이크타임 21:00 라스트오더,0,37.5508397,126.9200367
36628482,소친친,퓨전음식,서울 종로구 대명길 39-9 2층,02-742-8594,"토:11:30 - 22:00 15:30 - 16:30 브레이크타임 14:30, 21:00 라스트오더/일:정기휴무 (매주 일요일)/월:11:30 - 22:00 15:30 - 16:30 브레이크타임 14:30, 21:00 라스트오더/화:11:30 - 22:00 15:30 - 16:30 브레이크타임 14:30, 21:00 라스트오더/수:11:30 - 22:00 15:30 - 16:30 브레이크타임 14:30, 21:00 라스트오더/목:11:30 - 22:00 15:30 - 16:30 브레이크타임 14:30, 21:00 라스트오더/금:11:30 - 22:00 15:30 - 16:30 브레이크타임 14:30, 21:00 라스트오더",0,37.582611,126.9997874
1348183305,배스킨라빈스 대구대곡2지구점,아이스크림,"대구 달서구 갈밭로 16 (대곡동) 102호, 103호",0507-1438-3130,매일:10:00 - 23:00,0,35.8017293,128.5318076
1485118707,초이다이닝,일식당,서울 마포구 동교로36길 3 지하1층,02-6951-5456,매일:11:30 - 21:00 15:00 - 17:00 브레이크타임 20:30 라스트오더,0,37.5612968,126.9245787
1395030685,옹근달,"카페,디저트",서울 성동구 성수이로7길 41-1,02-499-5012,매일:11:00 - 22:00,0,37.5427395,127.052991
1097431908,압구정 밤바다,"해물,생선요리",서울 강남구 압구정로48길 38 2층,0507-1376-4104,토:17:30 - 새벽 03:00새벽 02:30 라스트오더/일:17:30 - 새벽 03:00새벽 02:30 라스트오더/월:정기휴무 (매주 월요일)/화:17:30 - 새벽 01:30새벽 01:00 라스트오더/수:17:30 - 새벽 01:30새벽 01:00 라스트오더/목:17:30 - 새벽 01:30새벽 01:00 라스트오더/금:17:30 - 새벽 01:30새벽 01:00 라스트오더,0,37.5259628,127.0368719
1272335369,카페토브,브런치,경기 안양시 동안구 동편로20번길 28 104호,0507-1331-4391,토:10:00 - 22:00/일:12:00 - 22:00/월:10:00 - 22:00/화:10:00 - 22:00/수:10:00 - 22:00/목:10:00 - 22:00/금:10:00 - 22:00,0,37.4053892,126.9724973
21037913,쯔루하시 후게츠 명동점,일식당,서울 중구 명동8길 21-5 해암빌딩 2층,02-3789-5920,토:11:30 - 21:00 20:00 라스트오더/일:11:30 - 21:00 20:00 라스트오더/월:11:30 - 21:00 14:30 - 17:00 브레이크타임 20:00 라스트오더/화:11:30 - 21:00 14:30 - 17:00 브레이크타임 20:00 라스트오더/수:11:30 - 21:00 14:30 - 17:00 브레이크타임 20:00 라스트오더/목:11:30 - 21:00 14:30 - 17:00 브레이크타임 20:00 라스트오더/금:11:30 - 21:00 14:30 - 17:00 브레이크타임 20:00 라스트오더,0,37.56285,126.9850447
111046634,타르타르 대구동성로점,카페,대구 중구 중앙대로 378,1800-1722,매일:10:00 - 22:00,0,35.8667646,128.5936738
38277496,오늘김해뒷고기 서면점,돼지고기구이,부산 부산진구 동천로85번길 16,010-2101-3808,매일:16:00 - 새벽 00:00,0,35.1563612,129.0613979
1093183118,카페그리트,"카페,디저트",경기 수원시 팔달구 신풍로23번길 63-10 카페그리트,031-1231-1234,토:12:30 - 22:00/일:12:30 - 22:00/월:12:30 - 22:00/화:12:30 - 22:00/수:12:30 - 22:00/목:12:30 - 22:00/금:12:30 - 22:00,0,37.283582,127.0111257
1869912874,은하수식당,"육류,고기요리",대구 중구 달구벌대로447길 72-1,053-431-2775,,0,35.8656334,128.6083965
1045302382,몬탁,베이커리,서울 서초구 서초대로32길 8 1층,070-7585-1101,토:11:00 - 19:00/일:11:00 - 19:00/월:11:00 - 19:00/화:11:00 - 19:00/수:정기휴무 (매주 수요일)/목:11:00 - 19:00/금:11:00 - 19:00,0,37.4883373,126.9969583
1466070244,여의도 셋째집,돼지고기구이,서울 영등포구 국제금융로8길 2 B104호,0507-1463-0324,토:12:00 - 22:00 16:00 - 17:00 브레이크타임 21:00 라스트오더/일:12:00 - 22:00 16:00 - 17:00 브레이크타임 21:00 라스트오더/월:11:00 - 22:00 15:00 - 17:00 브레이크타임 21:00 라스트오더/화:11:00 - 22:00 15:00 - 17:00 브레이크타임 21:00 라스트오더/수:11:00 - 22:00 15:00 - 17:00 브레이크타임 21:00 라스트오더/목:11:00 - 22:00 15:00 - 17:00 브레이크타임 21:00 라스트오더/금:11:00 - 22:00 15:00 - 17:00 브레이크타임 21:00 라스트오더,0,37.5220183,126.93006
1022036790,영돈,"육류,고기요리",경기 화성시 봉담읍 동화역말길 141-1 와우사거리(와우리교회 구관 맞은 편),0507-1378-5224,토:11:00 - 22:00 14:30 - 16:30 브레이크타임/일:11:00 - 22:00 14:30 - 16:30 브레이크타임/월:정기휴무 (매주 월요일)/화:11:00 - 22:00 14:30 - 16:30 브레이크타임/수:11:00 - 22:00 14:30 - 16:30 브레이크타임/목:11:00 - 22:00 14:30 - 16:30 브레이크타임/금:11:00 - 22:00 14:30 - 16:30 브레이크타임,0,37.2197931,126.9740738
21889371,봉봉방앗간,카페,강원 강릉시 경강로2024번길 17-1,033-647-1711,토:11:00 - 18:00/일:11:00 - 18:00/월:정기휴무 (매주 월요일)/화:11:00 - 18:00/수:11:00 - 18:00/목:11:00 - 18:00/금:11:00 - 18:00,0,37.7510339,128.8924302
1425666795,홀드더도어,"카페,디저트",서울 용산구 한남대로27가길 34 홀드더도어,070-7585-4022,매일:10:00 - 21:00 20:30 라스트오더,0,37.5382153,127.0025615
1261122567,안목항물회,생선회,강원 강릉시 경강로 2609,033-652-8253,토:10:00 - 21:00/일:10:00 - 21:00/월:정기휴무 (매주 월요일)/화:10:00 - 21:00/수:10:00 - 21:00/목:10:00 - 21:00/금:10:00 - 21:00,0,37.7732225,128.9451076
37873120,강릉형제장칼국수,"칼국수,만두",서울 관악구 대학5길 10-7,02-871-8852,토:10:30 - 20:00/일:10:30 - 20:00/월:정기휴무 (매주 월요일)/화:10:30 - 20:00/수:10:30 - 20:00/목:10:30 - 20:00/금:10:30 - 20:00,0,37.469014,126.9384166
1924805868,마라돈왕주먹고기,"육류,고기요리",서울 용산구 한강대로17길 7,02-794-2195,매일:11:00 - 22:30 21:30 라스트오더,0,37.5261194,126.9642371
37663862,또보겠지떡볶이집 붕붕허니비점,분식,서울 마포구 양화로19길 22-25,0507-1415-1287,토:11:30 - 21:00 20:00 라스트오더/일:11:30 - 21:00 20:00 라스트오더/월:정기휴무 (매주 월요일)/화:11:30 - 21:00 15:00 - 16:30 브레이크타임 20:00 라스트오더/수:11:30 - 21:00 15:00 - 16:30 브레이크타임 20:00 라스트오더/목:11:30 - 21:00 15:00 - 16:30 브레이크타임 20:00 라스트오더/금:11:30 - 21:00 15:00 - 16:30 브레이크타임 20:00 라스트오더,0,37.5589783,126.9244242
19861859,홍대 조폭 떡볶이,떡볶이,서울 마포구 어울마당로 60 1층 홍대조폭떡볶이,02-337-9933,매일:11:30 - 새벽 04:30,0,37.5504074,126.9213812
1761113868,야키토리 미식서울,일식당,서울 마포구 성미산로 189-5 201호,0507-1344-8513,토:17:00 - 22:00 21:30 라스트오더/일:17:00 - 22:00 21:30 라스트오더/월:정기휴무 (매주 월요일)/화:17:00 - 22:00 21:30 라스트오더/수:17:00 - 22:00 21:30 라스트오더/목:17:00 - 22:00 21:30 라스트오더/금:17:00 - 22:00 21:30 라스트오더,0,37.563192,126.9265199
31135248,지로우 라멘,일식당,서울 마포구 와우산로29가길 79 1층,02-323-3225,매일:11:00 - 21:30 15:00 - 16:30 브레이크타임,0,37.5536941,126.9251501
35431521,낙랑파라,"카페,디저트",서울 마포구 연희로1길 21,02-538-1197,매일:11:00 - 22:00,0,37.5599765,126.9253632
1072884158,코이크,"카페,디저트",서울 마포구 동교로39길 8,,토:12:00 - 22:00/일:12:00 - 22:00/월:정기휴무 (매주 월요일)/화:정기휴무 (매주 화요일)/수:12:00 - 22:00/목:12:00 - 22:00/금:12:00 - 22:00,0,37.5622523,126.9238872
201592671,르폴뒤,베이커리,대구 중구 동성로1길 26,053-426-3006,매일:10:00 - 23:00,0,35.8664334,128.5948868
11707564,프리모바치오바치 홍대본점,이탈리아음식,서울 마포구 와우산로23길 44,02-323-0098,토:11:00 - 23:00 22:00 라스트오더/일:11:00 - 23:00 22:00 라스트오더/월:11:00 - 23:00 22:00 라스트오더/화:11:00 - 23:00 22:00 라스트오더/수:11:00 - 23:00 22:00 라스트오더/목:11:00 - 23:00 22:00 라스트오더/금:11:00 - 23:00 22:00 라스트오더,0,37.5547889,126.923696
13060964,뜰안,한방카페,서울 종로구 수표로28길 17-35,0507-1401-7420,토:12:00 - 22:00 21:00 라스트오더/일:12:00 - 22:00 21:00 라스트오더/월:정기휴무 (매주 월요일)/화:12:00 - 22:00 21:00 라스트오더/수:12:00 - 22:00 21:00 라스트오더/목:12:00 - 22:00 21:00 라스트오더/금:12:00 - 22:00 21:00 라스트오더,0,37.5736892,126.9894249
1085970829,OBPC 연남본점,피자,서울 마포구 양화로23길 40 1층,0507-1361-5585,매일:13:00 - 22:00,0,37.5600702,126.9247201
12873924,애플하우스,떡볶이,서울 동작구 동작대로27다길 29 2층,02-595-1629,매일:10:30 - 21:00 20:30 라스트오더,0,37.4863013,126.9806796
19866844,mk2,카페,서울 종로구 자하문로10길 17,02-730-6420,토:12:00 - 22:00/일:12:00 - 22:00/월:12:00 - 22:00/화:12:00 - 22:00/수:12:00 - 22:00/목:12:00 - 22:00/금:12:00 - 22:00,0,37.5795093,126.9725174
1778363634,애리스커피스탠드,"카페,디저트",대구 동구 동부로32길 2,010-2426-3311,매일:09:00 - 20:00 19:00 라스트오더,0,35.8768533,128.630688
1131121705,롤인익선,"초밥,롤",서울 종로구 삼일대로30길 37,0507-1314-4560,토:11:00 - 21:00/일:정기휴무 (매주 일요일)/월:11:00 - 21:00/화:11:00 - 21:00/수:11:00 - 21:00/목:11:00 - 21:00/금:11:00 - 21:00,0,37.5743629,126.9897781
1098189775,평화,"카페,디저트",서울 영등포구 도림로131길 13 1층 평화,010-4737-6440,토:12:00 - 새벽 01:00/일:12:00 - 새벽 00:00/월:13:00 - 새벽 00:00/화:13:00 - 새벽 00:00/수:13:00 - 새벽 00:00/목:13:00 - 새벽 00:00/금:13:00 - 새벽 01:00,0,37.5137337,126.8943262
34786841,이태리총각 서촌점,피자,서울 종로구 자하문로9길 11,02-730-8893,토:12:00 - 22:00 16:00 - 17:00 브레이크타임/일:12:00 - 22:00 16:00 - 17:00 브레이크타임/월:11:30 - 22:00 15:00 - 17:00 브레이크타임/화:11:30 - 22:00 15:00 - 17:00 브레이크타임/수:11:30 - 22:00 15:00 - 17:00 브레이크타임/목:11:30 - 22:00 15:00 - 17:00 브레이크타임/금:11:30 - 22:00 15:00 - 17:00 브레이크타임,0,37.5793129,126.9705819
1783153281,아키비스트,카페,서울 종로구 효자로13길 52 1층 아키비스트 서촌,02-738-1517,토:11:00 - 21:00 20:30 라스트오더/일:11:00 - 21:00 20:30 라스트오더/월:11:00 - 21:00 20:30 라스트오더/화:11:00 - 21:00 20:30 라스트오더/수:11:00 - 21:00 20:30 라스트오더/목:11:00 - 21:00 20:30 라스트오더/금:11:00 - 21:00 20:30 라스트오더,0,37.5822237,126.9726779
1307214864,무슈부부커피스탠드,"카페,디저트",서울 마포구 양화로3길 77-10,,토:12:00 - 20:00/일:12:00 - 20:00/월:정기휴무 (매주 월요일)/화:정기휴무 (매주 화요일)/수:12:00 - 20:00/목:12:00 - 20:00/금:12:00 - 20:00,0,37.5525216,126.9103248
1003951515,라이커밀,이탈리아음식,부산 부산진구 전포대로176번길 36 1층,0507-1338-5609,토:11:30 - 21:00 15:30 - 16:30 브레이크타임/일:11:30 - 21:00 15:30 - 16:30 브레이크타임/월:정기휴무 (매주 월요일)/화:11:30 - 21:00 15:30 - 16:30 브레이크타임/수:11:30 - 21:00 15:30 - 16:30 브레이크타임/목:11:30 - 21:00 15:30 - 16:30 브레이크타임/금:11:30 - 21:00 15:30 - 16:30 브레이크타임,0,35.152154,129.0675418
1783666338,소코아 삼산점,카레,울산 남구 왕생로62번길 16 1층,0507-1370-9737,매일:11:30 - 21:00 15:00 - 17:00 브레이크타임,0,35.5391305,129.3335171
1476693692,맨션 드 방콕,태국음식,대구 중구 동성로1길 67,0507-1327-2777,토:11:30 - 21:30 15:30 - 17:00 브레이크타임/일:11:30 - 21:30 15:30 - 17:00 브레이크타임/월:11:30 - 21:30 15:30 - 17:00 브레이크타임/화:11:30 - 21:30 15:30 - 17:00 브레이크타임/수:11:30 - 21:30 15:30 - 17:00 브레이크타임/목:정기휴무 (매주 목요일)/금:11:30 - 21:30 15:30 - 17:00 브레이크타임,0,35.8655449,128.5970203
38320708,수원역로데오거리,"거리,골목",경기 수원시 팔달구 향교로 3-2,,,0,37.2676841,127.0016324
1656733920,한란,요리주점,서울 마포구 동교로38길 27-12 1층,02-6407-3339,토:14:00 - 21:00/일:14:00 - 21:00/월:14:00 - 21:00/화:14:00 - 21:00/수:14:00 - 21:00/목:14:00 - 21:00/금:14:00 - 21:00,0,37.5618233,126.9260527
1422397263,알로이막막,태국음식,서울 종로구 자하문로7길 30,0507-1496-6024,매일:11:30 - 21:00 20:30 라스트오더,0,37.5790581,126.9705809
1845042944,온미동 동교점,일식당,서울 마포구 월드컵북로4길 95,02-323-0626,토:11:30 - 21:30 15:00 - 17:00 브레이크타임 21:00 라스트오더/일:정기휴무 (매주 일요일)/월:11:30 - 21:30 15:00 - 17:00 브레이크타임 21:00 라스트오더/화:11:30 - 21:30 15:00 - 17:00 브레이크타임 21:00 라스트오더/수:11:30 - 21:30 15:00 - 17:00 브레이크타임 21:00 라스트오더/목:11:30 - 21:30 15:00 - 17:00 브레이크타임 21:00 라스트오더/금:11:30 - 21:30 15:00 - 17:00 브레이크타임 21:00 라스트오더,0,37.5599645,126.923412
1138570926,멘카오리,일본식라면,서울 서초구 사평대로57길 39-2,02-6014-1786,토:정기휴무 (매주 토요일)/일:정기휴무 (매주 일요일)/월:11:30 - 20:30 15:00 - 17:00 브레이크타임 20:00 라스트오더/화:11:30 - 20:30 15:00 - 17:00 브레이크타임 20:00 라스트오더/수:11:30 - 20:30 15:00 - 17:00 브레이크타임 20:00 라스트오더/목:11:30 - 20:30 15:00 - 17:00 브레이크타임 20:00 라스트오더/금:11:30 - 20:30 15:00 - 17:00 브레이크타임 20:00 라스트오더,0,37.5060409,127.022678
1406660024,띠오 데 산타바바라 합정점,"멕시코,남미음식",서울 마포구 어울마당로5길 50 지층A 띠오 데 산타바바라,02-336-7730,매일:11:00 - 23:00 15:00 - 17:00 브레이크타임 22:00 라스트오더,0,37.5500313,126.918107
1960462169,송계옥,닭요리,"서울 송파구 올림픽로32길 38 1층 103,104호",0507-1432-2329,토:15:00 - 22:00 21:00 라스트오더/일:15:00 - 22:00 21:00 라스트오더/월:16:00 - 22:00 21:00 라스트오더/화:16:00 - 22:00 21:00 라스트오더/수:16:00 - 22:00 21:00 라스트오더/목:16:00 - 22:00 21:00 라스트오더/금:16:00 - 22:00 21:00 라스트오더,0,37.5129043,127.1103623
1935471901,루프,"카페,디저트",서울 성동구 연무장5길 9-13 1층,070-7740-2020,토:11:00 - 22:00/일:11:30 - 22:00/월:11:00 - 22:00/화:11:00 - 22:00/수:11:00 - 22:00/목:11:00 - 22:00/금:11:00 - 22:00,0,37.5441728,127.0523024
1555137184,마라박사,중식당,서울 용산구 한강대로76길 11-4,02-749-3130,토:12:00 - 22:00/일:정기휴무 (매주 일요일)/월:16:30 - 22:00/화:16:30 - 22:00/수:16:30 - 22:00/목:16:30 - 22:00/금:16:30 - 22:00,0,37.5417978,126.9739251
1481417855,돌돌솥,한식,경남 창원시 성산구 창이대로464번길 22 돌돌솥,0507-1342-6432,토:11:30 - 21:00 14:10 - 17:00 브레이크타임/일:11:30 - 21:00 14:10 - 17:00 브레이크타임/월(3/28):휴무/화(3/29):휴무/수:11:30 - 21:00 14:10 - 17:00 브레이크타임/목:11:30 - 21:00 14:10 - 17:00 브레이크타임/금:11:30 - 21:00 14:10 - 17:00 브레이크타임,0,35.2372522,128.6840288
432138126,경성코페 창원가로수길점,카페,경남 창원시 성산구 외동반림로248번길 31,055-266-4836,매일:11:00 - 23:00,0,35.2376353,128.6824544
1181428245,조밀,양식,대구 중구 달구벌대로 2115-2,0507-1441-0505,토:11:30 - 21:30 15:00 - 17:00 브레이크타임 20:30 라스트오더/일:11:30 - 21:30 15:00 - 17:00 브레이크타임 20:30 라스트오더/월:11:30 - 21:30 15:00 - 17:00 브레이크타임 20:30 라스트오더/화:정기휴무 (매주 화요일)/수:11:30 - 21:30 15:00 - 17:00 브레이크타임 20:30 라스트오더/목:11:30 - 21:30 15:00 - 17:00 브레이크타임 20:30 라스트오더/금:11:30 - 21:30 15:00 - 17:00 브레이크타임 20:30 라스트오더,0,35.8655305,128.5951823
1017959868,굿모닝홍콩,아시아음식,부산 부산진구 서전로47번길 19 1층 굿모닝홍콩,0507-1334-3724,토:12:00 - 18:00 17:00 라스트오더/일:12:00 - 18:00 17:00 라스트오더/월:정기휴무 (매주 월요일)/화:12:00 - 20:00 19:00 라스트오더/수:12:00 - 20:00 19:00 라스트오더/목:12:00 - 20:00 19:00 라스트오더/금:12:00 - 20:00 19:00 라스트오더,0,35.1587637,129.0645493
1193854870,벽돌해피푸드 한남점,중식당,서울 용산구 이태원로 238 제2호 지하 1층,02-797-8586,토:12:00 - 22:00 15:00 - 17:00 브레이크타임/일:정기휴무 (매주 일요일)/월:11:30 - 22:00 15:00 - 17:00 브레이크타임/화:11:30 - 22:00 15:00 - 17:00 브레이크타임/수:11:30 - 22:00 15:00 - 17:00 브레이크타임/목:11:30 - 22:00 15:00 - 17:00 브레이크타임/금:11:30 - 22:00 15:00 - 17:00 브레이크타임,0,37.5359183,126.9999075
1431471213,샌디즈네이처,공방,부산 수영구 수영로611번길 15,070-8286-7942,,0,35.1605326,129.1127598
1561424368,라뚜셩트,"카페,디저트",서울 종로구 동숭4길 30-3 1층,0507-1316-4342,토:12:00 - 21:00/일:12:00 - 21:00/월:정기휴무 (매주 월요일)/화:12:00 - 20:00/수:12:00 - 21:00/목:12:00 - 21:00/금:12:00 - 21:00,0,37.5838664,127.0052112
1272415395,광안리비비드13,브런치,부산 수영구 광남로 129 광안빌딩 1층,0507-1380-0331,토:08:00 - 20:00/일:08:00 - 20:00/월:08:30 - 20:00/화:08:30 - 20:00/수:08:30 - 20:00/목:08:30 - 20:00/금:08:30 - 20:00,0,35.1532745,129.1165743
34818120,128PAN,이탈리아음식,서울 종로구 동숭4길 14 1층,010-2784-1453,매일:12:00 - 22:00,0,37.5833163,127.0044139
1461872505,우즈베이커리 대곡점,베이커리,대구 달서구 갈밭로 76 1.2층,053-634-9700,토:09:00 - 22:00/일:09:00 - 22:00/월:09:00 - 22:00/화:09:00 - 22:00/수:09:00 - 22:00/목:09:00 - 22:00/금:09:00 - 22:00,0,35.8055987,128.5285011
30949106,잠실황소곱창,"곱창,막창,양",서울 송파구 삼학사로19길 5 용호빌딩,02-423-8817,토:16:00 - 새벽 00:00/일:정기휴무 (매주 일요일)/월:16:00 - 새벽 00:00/화:16:00 - 새벽 00:00/수:16:00 - 새벽 00:00/목:16:00 - 새벽 00:00/금:16:00 - 새벽 00:00,0,37.5057288,127.0964701
1484712239,까사델제주,"카페,디저트",경북 경산시 원효로40길 23-7,0507-1337-4465,토:10:00 - 21:00/일:10:00 - 21:00/월:10:00 - 21:00/화:10:00 - 21:00/수:10:00 - 21:00/목:10:00 - 21:00/금:10:00 - 21:00,0,35.8171159,128.7568757
19744482,커볶,카페,광주 동구 지호로 161-7,062-223-5947,매일:11:00 - 22:00,0,35.1500133,126.9451046
1806157537,동아식당,한식,대구 중구 국채보상로125길 14,0507-1331-4994,토:11:30 - 20:00 15:00 - 17:00 브레이크타임/일:11:30 - 20:00 15:00 - 17:00 브레이크타임/월:정기휴무 (매주 월요일)/화:11:30 - 20:00 15:00 - 17:00 브레이크타임/수:11:30 - 20:00 15:00 - 17:00 브레이크타임/목:11:30 - 20:00 15:00 - 17:00 브레이크타임/금:11:30 - 20:00 15:00 - 17:00 브레이크타임,0,35.8710463,128.5989441
1810051671,월량관,중식당,서울 마포구 동교로46길 10 1층,02-322-1830,토:11:30 - 22:00 14:50 - 16:30 브레이크타임 14:50 - 16:30 브레이크타임/일:11:30 - 22:00 14:50 - 16:30 브레이크타임 14:50 - 16:30 브레이크타임/월:정기휴무 (매주 월요일)/화:11:30 - 22:00 14:50 - 16:30 브레이크타임 14:50 - 16:30 브레이크타임/수:11:30 - 22:00 14:50 - 16:30 브레이크타임 14:50 - 16:30 브레이크타임/목:11:30 - 22:00 14:50 - 16:30 브레이크타임 14:50 - 16:30 브레이크타임/금:11:30 - 22:00 14:50 - 16:30 브레이크타임 14:50 - 16:30 브레이크타임,0,37.5625268,126.9252981
1027565485,제주어멍 통갈치,향토음식,제주 제주시 서해안로 372,0507-1421-8299,매일:09:00 - 21:00 20:00 라스트오더,0,33.5116277,126.4842433
37203179,비스트로큐슈,카레,서울 마포구 와우산로30길 13 102호,02-322-1913,매일:11:00 - 21:00 20:15 라스트오더,0,37.5541552,126.9299687
1744506906,수상한키친,일식당,서울 마포구 성미산로 190-31 1층 수상한 키친,0507-1471-0063,토:11:00 - 22:30 15:00 - 17:00 브레이크타임 22:00 라스트오더/일:11:00 - 22:30 15:00 - 17:00 브레이크타임 22:00 라스트오더/월:11:00 - 22:30 22:00 라스트오더/화:11:00 - 22:30 22:00 라스트오더/수:11:00 - 22:30 22:00 라스트오더/목:11:00 - 22:30 22:00 라스트오더/금:11:00 - 22:30 22:00 라스트오더,0,37.5625386,126.9258367
1230672631,카페포스터,"카페,디저트",서울 마포구 연남로3길 13 2층,0507-1365-4286,토:12:00 - 22:00/일:12:00 - 22:00/월:12:00 - 22:00/화:12:00 - 22:00/수:정기휴무 (매주 수요일)/목:12:00 - 22:00/금:12:00 - 22:00,0,37.5611506,126.9217986
31969785,딘타이펑 영등포타임스퀘어점,중식당,서울 영등포구 영중로 15 타임스퀘어 4F 413,0507-1370-2780,매일:11:00 - 22:00 21:00 라스트오더,0,37.5172058,126.903714
13156385,체부동잔치집,국수,서울 종로구 자하문로1길 16,02-730-5420,매일:11:00 - 22:30,0,37.5765551,126.9715197
38015046,갈삼구이,조개요리,부산 수영구 민락수변로 7,0507-1412-9266,토:12:00 - 23:00/일:12:00 - 22:30/월:12:00 - 22:30/화:12:00 - 22:30/수:12:00 - 22:30/목:12:00 - 22:30/금:12:00 - 22:30,0,35.1551475,129.1240236
1294219458,대쿠이 부산직영점,돈가스,부산 부산진구 전포대로175번길 39 1층,0507-1330-0597,토:11:30 - 21:00 14:50 - 17:00 브레이크타임 20:00 라스트오더/일:11:30 - 21:00 14:50 - 17:00 브레이크타임 20:00 라스트오더/월:11:30 - 21:00 14:50 - 17:00 브레이크타임 20:00 라스트오더/화:11:30 - 21:00 14:50 - 17:00 브레이크타임 20:00 라스트오더/수:11:30 - 21:00 14:50 - 17:00 브레이크타임 20:00 라스트오더/목:11:30 - 21:00 14:50 - 17:00 브레이크타임 20:00 라스트오더/금:11:30 - 21:00 14:50 - 17:00 브레이크타임 20:00 라스트오더,0,35.1521224,129.0630238
1285602596,새우까는집,"해물,생선요리",부산 서구 구덕로296번길 7,0507-1454-0148,토:15:00 - 23:59/일:15:00 - 23:59/월:16:00 - 새벽 00:00/화:16:00 - 새벽 00:00/수:16:00 - 새벽 00:00/목:16:00 - 새벽 00:00/금:16:00 - 새벽 00:00,0,35.1106686,129.0179741
1535937111,"육회한 달,밤",한식,서울 마포구 독막로3길 27 1층,0507-1364-9282,매일:17:00 - 새벽 03:00새벽 02:00 라스트오더,0,37.5496302,126.9170265
13152757,커피방앗간,카페,서울 종로구 북촌로5가길 8-11,02-732-7656,매일:08:30 - 23:00,0,37.580313,126.9824911
11699002,낙성곱창본점,"곱창,막창,양",서울 관악구 봉천로 495-3,0507-1436-1121,토:16:00 - 새벽 00:00/일:정기휴무 (매주 일요일)/월:16:00 - 새벽 00:00/화:16:00 - 새벽 00:00/수:16:00 - 새벽 00:00/목:16:00 - 새벽 00:00/금:16:00 - 새벽 00:00,0,37.4814683,126.9551017
33068253,계림,닭볶음탕,서울 종로구 돈화문로4길 39,02-2263-6658,토:11:30 - 21:40 15:30 - 16:30 브레이크타임 20:00 라스트오더/일:정기휴무 (매주 일요일)/월:11:30 - 21:40 15:30 - 16:30 브레이크타임 20:00 라스트오더/화:11:30 - 21:40 15:30 - 16:30 브레이크타임 20:00 라스트오더/수:11:30 - 21:40 15:30 - 16:30 브레이크타임 20:00 라스트오더/목:11:30 - 21:40 15:30 - 16:30 브레이크타임 20:00 라스트오더/금:11:30 - 21:40 15:30 - 16:30 브레이크타임 20:00 라스트오더,0,37.5701701,126.9945031
1381959306,플루크커피,카페,광주 동구 구성로152번길 28-4 1층 플루크커피,010-2432-0969,매일:10:00 - 22:00,0,35.1483658,126.912871
1563969610,금산재칼국수,"칼국수,만두",경북 경주시 흥무로 71 금산재칼국수,054-772-7052,토:10:00 - 18:00 15:00 - 16:00 브레이크타임/일:10:00 - 18:00 15:00 - 16:00 브레이크타임/월:10:00 - 18:00 15:00 - 16:00 브레이크타임/화:10:00 - 18:00 15:00 - 16:00 브레이크타임/수:10:00 - 18:00 15:00 - 16:00 브레이크타임/목:10:00 - 18:00 15:00 - 16:00 브레이크타임/금:10:00 - 18:00 15:00 - 16:00 브레이크타임,0,35.8465205,129.194178
1178405880,지하102호,이자카야,서울 마포구 양화로6길 57-22,0507-1308-8648,매일:15:00 - 새벽 03:00,0,37.5493881,126.9180599
1782401957,가봉반과,"카페,디저트",경북 경주시 첨성로 61-7,054-744-6648,토:12:00 - 19:00/일:12:00 - 19:00/월:12:00 - 19:00/화:정보없음/수:12:00 - 19:00/목:12:00 - 19:00/금:12:00 - 19:00,0,35.8336011,129.2088068
